id,name,state_id,state_code,country_id,country_code,latitude,longitude
120001,Lake Wynonah,1422,PA,233,US,40.59926,-76.16383
120002,Lake Zurich,1425,IL,233,US,42.19697,-88.09341
120003,Lake and Peninsula Borough,1400,AK,233,US,57.00056,-158.00056
120004,Lake in the Hills,1425,IL,233,US,42.18169,-88.33036
120005,Lake of the Pines,1416,CA,233,US,39.03962,-121.05661
120006,Lake of the Woods,1425,IL,233,US,40.20642,-88.36867
120007,Lake of the Woods,1434,AZ,233,US,34.16393,-109.98955
120008,Lake of the Woods County,1420,MN,233,US,48.77051,-94.90503
120009,Lakefield,1420,MN,233,US,43.67746,-95.17166
120010,Lakehills,1407,TX,233,US,29.60467,-98.94309
120011,Lakehurst,1417,NJ,233,US,40.01456,-74.31126
120012,Lakeland,1436,FL,233,US,28.03947,-81.9498
120013,Lakeland,1455,GA,233,US,31.04104,-83.07515
120014,Lakeland,1454,TN,233,US,35.23064,-89.74036
120015,Lakeland,1420,MN,233,US,44.95636,-92.76576
120016,Lakeland,1452,NY,233,US,43.09034,-76.24048
120017,Lakeland Highlands,1436,FL,233,US,27.95975,-81.95008
120018,Lakeland North,1462,WA,233,US,47.33343,-122.27695
120019,Lakeland South,1462,WA,233,US,47.27843,-122.28326
120020,Lakeland Village,1416,CA,233,US,33.63863,-117.34393
120021,Lakemont,1422,PA,233,US,40.47285,-78.38835
120022,Lakemoor,1425,IL,233,US,42.32863,-88.19897
120023,Lakeport,1416,CA,233,US,39.04295,-122.91583
120024,Lakes,1400,AK,233,US,61.60713,-149.30861
120025,Lakes by the Bay,1436,FL,233,US,25.57233,-80.32533
120026,Lakes of the Four Seasons,1440,IN,233,US,41.41032,-87.21309
120027,Lakeshire,1451,MO,233,US,38.53866,-90.33512
120028,Lakeshore,1457,LA,233,US,32.53514,-92.02958
120029,Lakeside,1436,FL,233,US,30.12996,-81.76815
120030,Lakeside,1407,TX,233,US,32.82235,-97.49335
120031,Lakeside,1427,VA,233,US,37.60765,-77.47693
120032,Lakeside,1416,CA,233,US,32.85727,-116.92225
120033,Lakeside,1446,MT,233,US,48.01939,-114.22457
120034,Lakeside,1415,OR,233,US,43.57567,-124.17511
120035,Lakeside Park,1419,KY,233,US,39.03562,-84.56911
120036,Lakesite,1454,TN,233,US,35.20868,-85.1269
120037,Lakeview,1455,GA,233,US,34.97924,-85.25884
120038,Lakeview,1426,MI,233,US,43.44642,-85.2742
120039,Lakeview,1452,NY,233,US,40.68538,-73.65263
120040,Lakeview,1416,CA,233,US,33.83863,-117.11809
120041,Lakeview,1415,OR,233,US,42.18877,-120.34579
120042,Lakeview Estates,1455,GA,233,US,33.70678,-84.03158
120043,Lakeville,1420,MN,233,US,44.64969,-93.24272
120044,Lakeway,1407,TX,233,US,30.36377,-97.97959
120045,Lakewood,1443,SC,233,US,33.84683,-80.35008
120046,Lakewood,1454,TN,233,US,36.24311,-86.63555
120047,Lakewood,1425,IL,233,US,42.22919,-88.35509
120048,Lakewood,1417,NJ,233,US,40.09789,-74.21764
120049,Lakewood,1452,NY,233,US,42.10422,-79.3331
120050,Lakewood,1450,CO,233,US,39.70471,-105.08137
120051,Lakewood,1416,CA,233,US,33.85363,-118.13396
120052,Lakewood,1462,WA,233,US,47.17176,-122.51846
120053,Lakewood Club,1426,MI,233,US,43.37112,-86.26034
120054,Lakewood Park,1436,FL,233,US,27.54309,-80.40227
120055,Lakewood Shores,1425,IL,233,US,41.2817,-88.14478
120056,Lakin,1406,KS,233,US,37.94058,-101.25489
120057,Lakota,1418,ND,233,US,48.04278,-98.33621
120058,Lamar,1444,AR,233,US,35.44064,-93.38796
120059,Lamar,1451,MO,233,US,37.49505,-94.27661
120060,Lamar,1450,CO,233,US,38.08723,-102.62075
120061,Lamar County,1456,AL,233,US,33.77921,-88.0969
120062,Lamar County,1455,GA,233,US,33.07654,-84.13946
120063,Lamar County,1430,MS,233,US,31.20587,-89.50869
120064,Lamar County,1407,TX,233,US,33.66726,-95.5712
120065,Lamartine,1441,WI,233,US,43.73332,-88.56872
120066,Lamb County,1407,TX,233,US,34.06862,-102.35171
120067,Lambert,1430,MS,233,US,34.20178,-90.28343
120068,Lambertville,1426,MI,233,US,41.76588,-83.62799
120069,Lambertville,1417,NJ,233,US,40.36594,-74.94294
120070,Lame Deer,1446,MT,233,US,45.62305,-106.6667
120071,Lamesa,1407,TX,233,US,32.7376,-101.95099
120072,Lamoille County,1409,VT,233,US,44.60576,-72.64145
120073,Lamoni,1459,IA,233,US,40.62278,-93.93412
120074,Lamont,1416,CA,233,US,35.25968,-118.91427
120075,Lampasas,1407,TX,233,US,31.06378,-98.1817
120076,Lampasas County,1407,TX,233,US,31.19619,-98.24145
120077,Lampeter,1422,PA,233,US,39.9901,-76.23968
120078,Lanai City,1411,HI,233,US,20.82757,-156.92399
120079,Lanark,1425,IL,233,US,42.10225,-89.83345
120080,Lancaster,1419,KY,233,US,37.61952,-84.578
120081,Lancaster,1443,SC,233,US,34.72043,-80.7709
120082,Lancaster,1407,TX,233,US,32.59208,-96.75611
120083,Lancaster,1433,MA,233,US,42.45565,-71.67312
120084,Lancaster,1404,NH,233,US,44.48895,-71.56925
120085,Lancaster,1451,MO,233,US,40.52086,-92.52797
120086,Lancaster,1452,NY,233,US,42.90061,-78.67031
120087,Lancaster,1422,PA,233,US,40.03788,-76.30551
120088,Lancaster,1441,WI,233,US,42.84749,-90.71068
120089,Lancaster,1416,CA,233,US,34.69804,-118.13674
120090,Lancaster County,1443,SC,233,US,34.6867,-80.70543
120091,Lancaster County,1427,VA,233,US,37.70171,-76.42023
120092,Lancaster County,1408,NE,233,US,40.78417,-96.68776
120093,Lancaster County,1422,PA,233,US,40.04244,-76.2477
120094,Lancaster Mill,1443,SC,233,US,34.70931,-80.79479
120095,Land O' Lakes,1436,FL,233,US,28.2189,-82.45759
120096,Lander,1442,WY,233,US,42.83301,-108.73067
120097,Lander County,1458,NV,233,US,39.93381,-117.03791
120098,Landing,1417,NJ,233,US,40.9051,-74.66516
120099,Landis,1447,NC,233,US,35.54569,-80.6109
120100,Landisville,1422,PA,233,US,40.09537,-76.40996
120101,Landmark,1444,AR,233,US,34.6112,-92.3196
120102,Landover,1401,MD,233,US,38.934,-76.89664
120103,Landover Hills,1401,MD,233,US,38.94317,-76.8922
120104,Landrum,1443,SC,233,US,35.17511,-82.18928
120105,Lane County,1406,KS,233,US,38.4813,-100.4664
120106,Lane County,1415,OR,233,US,43.94155,-122.87655
120107,Lanesborough,1433,MA,233,US,42.51731,-73.22816
120108,Lanett,1456,AL,233,US,32.86874,-85.1905
120109,Langdon,1418,ND,233,US,48.76,-98.36817
120110,Langhorne,1422,PA,233,US,40.17455,-74.92267
120111,Langhorne Manor,1422,PA,233,US,40.16705,-74.91767
120112,Langlade County,1441,WI,233,US,45.26236,-89.07191
120113,Langley,1443,SC,233,US,33.51791,-81.844
120114,Langley,1462,WA,233,US,48.04009,-122.40626
120115,Langley Park,1401,MD,233,US,38.98872,-76.98136
120116,Langston,1421,OK,233,US,35.94505,-97.25531
120117,Lanham,1401,MD,233,US,38.96875,-76.8634
120118,Lanham-Seabrook,1401,MD,233,US,38.96835,-76.85108
120119,Lanier County,1455,GA,233,US,31.03789,-83.06265
120120,Lannon,1441,WI,233,US,43.14612,-88.1662
120121,Lansdale,1422,PA,233,US,40.2415,-75.28379
120122,Lansdowne,1401,MD,233,US,39.24511,-76.66052
120123,Lansdowne,1422,PA,233,US,39.93817,-75.27185
120124,Lansford,1422,PA,233,US,40.83176,-75.88242
120125,Lansing,1406,KS,233,US,39.24861,-94.90024
120126,Lansing,1425,IL,233,US,41.56476,-87.53893
120127,Lansing,1426,MI,233,US,42.73253,-84.55553
120128,Lansing,1452,NY,233,US,42.48424,-76.47994
120129,Lantana,1436,FL,233,US,26.58674,-80.05199
120130,Lantana,1407,TX,233,US,33.09073,-97.12416
120131,Lapeer,1426,MI,233,US,43.05142,-83.31883
120132,Lapeer County,1426,MI,233,US,43.09015,-83.22178
120133,Lapel,1440,IN,233,US,40.06837,-85.84831
120134,Laplace,1457,LA,233,US,30.06698,-90.48147
120135,Laporte,1422,PA,233,US,41.42397,-76.49411
120136,Laporte,1450,CO,233,US,40.62633,-105.13916
120137,Lapwai,1460,ID,233,US,46.40489,-116.80487
120138,Laramie,1442,WY,233,US,41.31137,-105.5911
120139,Laramie County,1442,WY,233,US,41.30707,-104.68962
120140,Larch Way,1462,WA,233,US,47.8429,-122.25275
120141,Larchmont,1452,NY,233,US,40.92788,-73.7518
120142,Laredo,1407,TX,233,US,27.50641,-99.50754
120143,Largo,1436,FL,233,US,27.90979,-82.78842
120144,Largo,1401,MD,233,US,38.89761,-76.83025
120145,Larimer County,1450,CO,233,US,40.66641,-105.46116
120146,Larimore,1418,ND,233,US,47.90666,-97.62675
120147,Larkfield-Wikiup,1416,CA,233,US,38.51342,-122.75094
120148,Larkspur,1416,CA,233,US,37.93409,-122.53525
120149,Larksville,1422,PA,233,US,41.24508,-75.93075
120150,Larned,1406,KS,233,US,38.18057,-99.09871
120151,Larose,1457,LA,233,US,29.57244,-90.38175
120152,Larue County,1419,KY,233,US,37.5458,-85.69792
120153,Las Animas,1450,CO,233,US,38.06667,-103.22271
120154,Las Animas County,1450,CO,233,US,37.31585,-104.03872
120155,Las Cruces,1423,NM,233,US,32.31232,-106.77834
120156,Las Flores,1416,CA,233,US,33.58808,-117.62672
120157,Las Lomas,1407,TX,233,US,26.36479,-98.7753
120158,Las Lomas,1416,CA,233,US,36.86523,-121.73495
120159,Las Maravillas,1423,NM,233,US,34.73815,-106.66854
120160,Las Palmas II,1407,TX,233,US,26.20171,-97.7376
120161,Las Quintas Fronterizas,1407,TX,233,US,28.69053,-100.46869
120162,Las Quintas Fronterizas Colonia,1407,TX,233,US,28.69137,-100.46924
120163,Las Vegas,1458,NV,233,US,36.17497,-115.13722
120164,Las Vegas,1423,NM,233,US,35.59393,-105.2239
120165,Lasara,1407,TX,233,US,26.46479,-97.91111
120166,Lassen County,1416,CA,233,US,40.67359,-120.59433
120167,Latah County,1460,ID,233,US,46.81613,-116.71168
120168,Latham,1452,NY,233,US,42.74702,-73.75901
120169,Lathrop,1451,MO,233,US,39.54834,-94.32995
120170,Lathrop,1416,CA,233,US,37.8227,-121.27661
120171,Lathrup Village,1426,MI,233,US,42.49642,-83.22271
120172,Latimer,1430,MS,233,US,30.53464,-88.8667
120173,Latimer County,1421,OK,233,US,34.87606,-95.25042
120174,Laton,1416,CA,233,US,36.43328,-119.6868
120175,Latrobe,1422,PA,233,US,40.32118,-79.37948
120176,Latta,1443,SC,233,US,34.3371,-79.43116
120177,Lattingtown,1452,NY,233,US,40.89538,-73.60096
120178,Lauderdale,1420,MN,233,US,44.99858,-93.20578
120179,Lauderdale County,1456,AL,233,US,34.90137,-87.654
120180,Lauderdale County,1430,MS,233,US,32.40429,-88.66254
120181,Lauderdale County,1454,TN,233,US,35.76101,-89.63144
120182,Lauderdale Lakes,1436,FL,233,US,26.16647,-80.20838
120183,Lauderdale-by-the-Sea,1436,FL,233,US,26.19203,-80.09643
120184,Lauderhill,1436,FL,233,US,26.14036,-80.21338
120185,Laughlin,1458,NV,233,US,35.16778,-114.57302
120186,Laughlin Air Force Base,1407,TX,233,US,29.35663,-100.78353
120187,Laurel,1399,DE,233,US,38.5565,-75.57131
120188,Laurel,1436,FL,233,US,27.14378,-82.46158
120189,Laurel,1401,MD,233,US,39.09928,-76.84831
120190,Laurel,1430,MS,233,US,31.69405,-89.13061
120191,Laurel,1427,VA,233,US,37.64292,-77.50887
120192,Laurel,1452,NY,233,US,40.96954,-72.56203
120193,Laurel,1446,MT,233,US,45.66912,-108.77153
120194,Laurel Bay,1443,SC,233,US,32.45019,-80.78483
120195,Laurel County,1419,KY,233,US,37.11067,-84.1178
120196,Laurel Hill,1447,NC,233,US,34.80905,-79.54783
120197,Laurel Hill,1427,VA,233,US,38.71663,-77.23686
120198,Laurel Hollow,1452,NY,233,US,40.85677,-73.46957
120199,Laurel Lake,1417,NJ,233,US,39.33956,-75.0299
120200,Laurel Park,1447,NC,233,US,35.31373,-82.49345
120201,Laurel Springs,1417,NJ,233,US,39.82011,-75.00628
120202,Laureldale,1422,PA,233,US,40.38815,-75.91798
120203,Laureles,1407,TX,233,US,26.10924,-97.49415
120204,Laurelton,1452,NY,233,US,40.67019,-73.74659
120205,Laurence Harbor,1417,NJ,233,US,40.45677,-74.24653
120206,Laurens,1443,SC,233,US,34.49901,-82.01426
120207,Laurens,1459,IA,233,US,42.84664,-94.85193
120208,Laurens County,1455,GA,233,US,32.46366,-82.92224
120209,Laurens County,1443,SC,233,US,34.48357,-82.00593
120210,Laurinburg,1447,NC,233,US,34.77405,-79.46282
120211,Laurium,1426,MI,233,US,47.23743,-88.44317
120212,Laurys Station,1422,PA,233,US,40.72315,-75.53018
120213,Lavaca,1444,AR,233,US,35.3362,-94.17326
120214,Lavaca County,1407,TX,233,US,29.38435,-96.93015
120215,Lavalette,1429,WV,233,US,38.32286,-82.44682
120216,Lavallette,1417,NJ,233,US,39.9704,-74.06875
120217,Laveen,1434,AZ,233,US,33.36282,-112.16932
120218,Laverne,1421,OK,233,US,36.70975,-99.89346
120219,Lavon,1407,TX,233,US,33.02762,-96.43415
120220,Lavonia,1455,GA,233,US,34.43594,-83.10682
120221,Lawai,1411,HI,233,US,21.92159,-159.50376
120222,Lawndale,1416,CA,233,US,33.88724,-118.35257
120223,Lawnside,1417,NJ,233,US,39.8665,-75.02823
120224,Lawnton,1422,PA,233,US,40.25842,-76.80386
120225,Lawrence,1440,IN,233,US,39.83865,-86.02526
120226,Lawrence,1406,KS,233,US,38.97167,-95.23525
120227,Lawrence,1433,MA,233,US,42.70704,-71.16311
120228,Lawrence,1452,NY,233,US,40.61566,-73.72958
120229,Lawrence County,1456,AL,233,US,34.52165,-87.31104
120230,Lawrence County,1444,AR,233,US,36.04125,-91.10708
120231,Lawrence County,1425,IL,233,US,38.71995,-87.72673
120232,Lawrence County,1440,IN,233,US,38.84116,-86.48345
120233,Lawrence County,1419,KY,233,US,38.06788,-82.73475
120234,Lawrence County,1451,MO,233,US,37.10635,-93.83294
120235,Lawrence County,1430,MS,233,US,31.5502,-90.10699
120236,Lawrence County,1454,TN,233,US,35.21727,-87.39559
120237,Lawrence County,1422,PA,233,US,40.99127,-80.33419
120238,Lawrence County,1445,SD,233,US,44.35863,-103.79222
120239,Lawrence Park,1422,PA,233,US,42.15228,-80.02311
120240,Lawrenceburg,1440,IN,233,US,39.09089,-84.84995
120241,Lawrenceburg,1419,KY,233,US,38.0373,-84.89662
120242,Lawrenceburg,1454,TN,233,US,35.2423,-87.33474
120243,Lawrenceville,1455,GA,233,US,33.95621,-83.98796
120244,Lawrenceville,1425,IL,233,US,38.72921,-87.68169
120245,Lawrenceville,1427,VA,233,US,36.75765,-77.84694
120246,Lawrenceville,1417,NJ,233,US,40.29733,-74.7296
120247,Lawson,1451,MO,233,US,39.43834,-94.20411
120248,Lawson Heights,1422,PA,233,US,40.29174,-79.3892
120249,Lawtell,1457,LA,233,US,30.51853,-92.18485
120250,Lawton,1421,OK,233,US,34.60869,-98.39033
120251,Lawton,1426,MI,233,US,42.16726,-85.84695
120252,Layhill,1401,MD,233,US,39.09233,-77.04442
120253,Laymantown,1427,VA,233,US,37.36569,-79.85754
120254,Layton,1414,UT,233,US,41.06022,-111.97105
120255,Laytonville,1416,CA,233,US,39.68821,-123.48279
120256,Lazy Mountain,1400,AK,233,US,61.62611,-148.94556
120257,Le Center,1420,MN,233,US,44.38941,-93.73023
120258,Le Claire,1459,IA,233,US,41.59864,-90.34346
120259,Le Flore County,1421,OK,233,US,34.9003,-94.70339
120260,Le Grand,1416,CA,233,US,37.22855,-120.24823
120261,Le Mars,1459,IA,233,US,42.79416,-96.16558
120262,Le Roy,1425,IL,233,US,40.35198,-88.76424
120263,Le Roy,1452,NY,233,US,42.97839,-77.98418
120264,Le Sueur,1420,MN,233,US,44.46135,-93.91524
120265,Le Sueur County,1420,MN,233,US,44.37143,-93.73008
120266,LeChee,1434,AZ,233,US,36.86211,-111.44063
120267,Lea County,1423,NM,233,US,32.79218,-103.41245
120268,Lea Hill,1462,WA,233,US,47.32621,-122.18151
120269,Leachville,1444,AR,233,US,35.93591,-90.25788
120270,Lead,1445,SD,233,US,44.35221,-103.7652
120271,Leadville,1450,CO,233,US,39.25082,-106.29252
120272,Leadville North,1450,CO,233,US,39.2576,-106.30138
120273,Leadwood,1451,MO,233,US,37.86727,-90.59318
120274,League City,1407,TX,233,US,29.50745,-95.09493
120275,Leake County,1430,MS,233,US,32.75353,-89.52406
120276,Leakesville,1430,MS,233,US,31.15574,-88.5578
120277,Leakey,1407,TX,233,US,29.72884,-99.76145
120278,Lealman,1436,FL,233,US,27.82114,-82.67927
120279,Leander,1407,TX,233,US,30.57881,-97.85307
120280,Leavenworth,1406,KS,233,US,39.31111,-94.92246
120281,Leavenworth,1462,WA,233,US,47.59623,-120.66148
120282,Leavenworth County,1406,KS,233,US,39.19932,-95.0379
120283,Leawood,1406,KS,233,US,38.96667,-94.6169
120284,Lebanon,1425,IL,233,US,38.60394,-89.80732
120285,Lebanon,1419,KY,233,US,37.56979,-85.25274
120286,Lebanon,1451,MO,233,US,37.6806,-92.66379
120287,Lebanon,1454,TN,233,US,36.20811,-86.2911
120288,Lebanon,1427,VA,233,US,36.90094,-82.08013
120289,Lebanon,1440,IN,233,US,40.04837,-86.46917
120290,Lebanon,1453,ME,233,US,43.39453,-70.85089
120291,Lebanon,1404,NH,233,US,43.64229,-72.25176
120292,Lebanon,1417,NJ,233,US,40.64177,-74.836
120293,Lebanon,1422,PA,233,US,40.34093,-76.41135
120294,Lebanon,1415,OR,233,US,44.53651,-122.90703
120295,Lebanon County,1422,PA,233,US,40.36723,-76.45771
120296,Lebanon Junction,1419,KY,233,US,37.83451,-85.7319
120297,Lebanon South,1422,PA,233,US,40.32804,-76.40644
120298,Lebec,1416,CA,233,US,34.84164,-118.86482
120299,Lecanto,1436,FL,233,US,28.85165,-82.4876
120300,Lecompte,1457,LA,233,US,31.09463,-92.40041
120301,Ledbetter,1419,KY,233,US,37.04756,-88.47699
120302,Ledyard,1435,CT,233,US,41.43982,-72.01424
120303,Lee,1433,MA,233,US,42.30425,-73.24816
120304,Lee,1404,NH,233,US,43.12314,-71.01145
120305,Lee Acres,1423,NM,233,US,35.14866,-106.64697
120306,Lee County,1456,AL,233,US,32.60114,-85.35556
120307,Lee County,1444,AR,233,US,34.78062,-90.78207
120308,Lee County,1436,FL,233,US,26.62536,-81.84952
120309,Lee County,1455,GA,233,US,31.77951,-84.14113
120310,Lee County,1419,KY,233,US,37.5948,-83.71628
120311,Lee County,1430,MS,233,US,34.28989,-88.68042
120312,Lee County,1447,NC,233,US,35.47517,-79.17143
120313,Lee County,1443,SC,233,US,34.16329,-80.25452
120314,Lee County,1407,TX,233,US,30.31068,-96.9657
120315,Lee County,1427,VA,233,US,36.70545,-83.12853
120316,Lee County,1459,IA,233,US,40.64198,-91.47926
120317,Lee County,1425,IL,233,US,41.74619,-89.30039
120318,Lee's Summit,1451,MO,233,US,38.91084,-94.38217
120319,Leechburg,1422,PA,233,US,40.62701,-79.6056
120320,Leeds,1456,AL,233,US,33.54816,-86.54443
120321,Leeds,1453,ME,233,US,44.3034,-70.1195
120322,Leelanau County,1426,MI,233,US,45.15177,-86.0385
120323,Leesburg,1456,AL,233,US,34.17982,-85.76136
120324,Leesburg,1436,FL,233,US,28.81082,-81.87786
120325,Leesburg,1455,GA,233,US,31.73212,-84.17074
120326,Leesburg,1427,VA,233,US,39.11566,-77.5636
120327,Leesport,1422,PA,233,US,40.44704,-75.96632
120328,Leesville,1457,LA,233,US,31.14352,-93.261
120329,Leesville,1443,SC,233,US,33.91653,-81.51344
120330,Leetsdale,1422,PA,233,US,40.56312,-80.20839
120331,Leflore County,1430,MS,233,US,33.55052,-90.30106
120332,Legend Lake,1441,WI,233,US,44.89095,-88.54406
120333,Lehi,1414,UT,233,US,40.39162,-111.85077
120334,Lehigh Acres,1436,FL,233,US,26.62535,-81.6248
120335,Lehigh County,1422,PA,233,US,40.61271,-75.59237
120336,Lehighton,1422,PA,233,US,40.8337,-75.7138
120337,Leicester,1433,MA,233,US,42.24593,-71.90868
120338,Leicester,1409,VT,233,US,43.86673,-73.10789
120339,Leilani Estates,1411,HI,233,US,19.46972,-154.91778
120340,Leisure City,1436,FL,233,US,25.49539,-80.42922
120341,Leisure Knoll,1417,NJ,233,US,40.01901,-74.29209
120342,Leisure Village,1417,NJ,233,US,40.04262,-74.18486
120343,Leisure Village East,1417,NJ,233,US,40.03012,-74.16431
120344,Leisure Village West-Pine Lake Park,1417,NJ,233,US,40.00416,-74.26629
120345,Leisure World,1401,MD,233,US,39.1023,-77.06898
120346,Leisuretowne,1417,NJ,233,US,39.89234,-74.7021
120347,Leitchfield,1419,KY,233,US,37.48005,-86.29386
120348,Leith-Hatfield,1422,PA,233,US,39.87744,-79.73133
120349,Leland,1430,MS,233,US,33.40539,-90.8976
120350,Leland,1447,NC,233,US,34.25628,-78.04471
120351,Leland,1426,MI,233,US,45.02305,-85.75981
120352,Leland Grove,1425,IL,233,US,39.777,-89.67927
120353,Lely,1436,FL,233,US,26.10065,-81.72842
120354,Lely Resort,1436,FL,233,US,26.08093,-81.69786
120355,Lemay,1451,MO,233,US,38.53339,-90.27928
120356,Lemhi County,1460,ID,233,US,44.94331,-113.93324
120357,Lemmon,1445,SD,233,US,45.94083,-102.15932
120358,Lemmon Valley,1458,NV,233,US,39.63602,-119.84325
120359,Lemon Grove,1416,CA,233,US,32.74255,-117.03142
120360,Lemont,1425,IL,233,US,41.67364,-88.00173
120361,Lemont,1422,PA,233,US,40.81062,-77.81833
120362,Lemoore,1416,CA,233,US,36.30078,-119.78291
120363,Lemoore Station,1416,CA,233,US,36.26326,-119.90476
120364,Lemoyne,1422,PA,233,US,40.2412,-76.89414
120365,Lempster,1404,NH,233,US,43.23841,-72.21064
120366,Lena,1425,IL,233,US,42.37946,-89.82234
120367,Lenape Heights,1422,PA,233,US,40.76423,-79.5206
120368,Lenawee County,1426,MI,233,US,41.89508,-84.06636
120369,Lenexa,1406,KS,233,US,38.95362,-94.73357
120370,Lennox,1445,SD,233,US,43.35415,-96.892
120371,Lennox,1416,CA,233,US,33.93807,-118.35258
120372,Lenoir,1447,NC,233,US,35.91402,-81.53898
120373,Lenoir City,1454,TN,233,US,35.7973,-84.25603
120374,Lenoir County,1447,NC,233,US,35.23915,-77.64127
120375,Lenox,1459,IA,233,US,40.88165,-94.56191
120376,Lenox,1433,MA,233,US,42.35648,-73.28483
120377,Lents,1415,OR,233,US,45.47984,-122.56731
120378,Lenwood,1416,CA,233,US,34.87665,-117.10393
120379,Leo-Cedarville,1440,IN,233,US,41.21255,-85.01664
120380,Leola,1422,PA,233,US,40.08787,-76.18495
120381,Leola,1445,SD,233,US,45.72275,-98.94094
120382,Leominster,1433,MA,233,US,42.52509,-71.75979
120383,Leon,1459,IA,233,US,40.73972,-93.74772
120384,Leon County,1436,FL,233,US,30.45804,-84.27788
120385,Leon County,1407,TX,233,US,31.29651,-95.99569
120386,Leon Valley,1407,TX,233,US,29.49523,-98.61863
120387,Leona Valley,1416,CA,233,US,34.61832,-118.28813
120388,Leonard,1407,TX,233,US,33.37955,-96.24748
120389,Leonardo,1417,NJ,233,US,40.41733,-74.06208
120390,Leonardtown,1401,MD,233,US,38.29124,-76.63579
120391,Leonia,1417,NJ,233,US,40.86149,-73.98819
120392,Leonville,1457,LA,233,US,30.47047,-91.97845
120393,Leoti,1406,KS,233,US,38.47974,-101.35877
120394,Lepanto,1444,AR,233,US,35.61119,-90.32982
120395,Lesage,1429,WV,233,US,38.50647,-82.29848
120396,Leslie,1426,MI,233,US,42.45143,-84.43247
120397,Leslie County,1419,KY,233,US,37.09406,-83.38116
120398,Lesslie,1443,SC,233,US,34.8907,-80.95647
120399,Lester Prairie,1420,MN,233,US,44.88385,-94.04164
120400,Letcher County,1419,KY,233,US,37.12119,-82.85528
120401,Levant,1453,ME,233,US,44.86924,-68.93476
120402,Level Green,1422,PA,233,US,40.3934,-79.72032
120403,Level Park-Oak Park,1426,MI,233,US,42.36418,-85.2665
120404,Level Plains,1456,AL,233,US,31.29962,-85.77799
120405,Levelland,1407,TX,233,US,33.58732,-102.37796
120406,Leverett,1433,MA,233,US,42.45203,-72.50148
120407,Levittown,1452,NY,233,US,40.72593,-73.51429
120408,Levittown,1422,PA,233,US,40.15511,-74.82877
120409,Levy County,1436,FL,233,US,29.28221,-82.78861
120410,Lewes,1399,DE,233,US,38.77456,-75.13935
120411,Lewis County,1419,KY,233,US,38.53154,-83.37805
120412,Lewis County,1454,TN,233,US,35.52728,-87.4931
120413,Lewis County,1429,WV,233,US,38.99587,-80.50216
120414,Lewis County,1451,MO,233,US,40.0969,-91.72214
120415,Lewis County,1452,NY,233,US,43.78469,-75.44879
120416,Lewis County,1460,ID,233,US,46.23702,-116.42625
120417,Lewis County,1462,WA,233,US,46.57773,-122.39241
120418,Lewis and Clark County,1446,MT,233,US,47.12234,-112.39035
120419,Lewisburg,1454,TN,233,US,35.44924,-86.78889
120420,Lewisburg,1429,WV,233,US,37.80179,-80.44563
120421,Lewisburg,1422,PA,233,US,40.96453,-76.88441
120422,Lewisport,1419,KY,233,US,37.937,-86.90221
120423,Lewiston,1453,ME,233,US,44.10035,-70.21478
120424,Lewiston,1426,MI,233,US,44.8839,-84.30557
120425,Lewiston,1420,MN,233,US,43.98441,-91.86932
120426,Lewiston,1452,NY,233,US,43.17256,-79.03588
120427,Lewiston,1416,CA,233,US,40.70737,-122.80752
120428,Lewiston,1460,ID,233,US,46.41655,-117.01766
120429,Lewiston,1414,UT,233,US,41.97576,-111.85634
120430,Lewiston Orchards,1460,ID,233,US,46.38044,-116.97543
120431,Lewistown,1425,IL,233,US,40.3931,-90.15484
120432,Lewistown,1422,PA,233,US,40.59924,-77.57138
120433,Lewistown,1446,MT,233,US,47.06247,-109.42824
120434,Lewisville,1444,AR,233,US,33.35846,-93.57768
120435,Lewisville,1447,NC,233,US,36.09708,-80.41922
120436,Lewisville,1407,TX,233,US,33.04623,-96.99417
120437,Lewisville,1462,WA,233,US,45.80984,-122.52315
120438,Lexington,1455,GA,233,US,33.86984,-83.11182
120439,Lexington,1419,KY,233,US,37.98869,-84.47772
120440,Lexington,1451,MO,233,US,39.18473,-93.87994
120441,Lexington,1430,MS,233,US,33.11318,-90.05314
120442,Lexington,1447,NC,233,US,35.82403,-80.25338
120443,Lexington,1443,SC,233,US,33.98154,-81.23621
120444,Lexington,1454,TN,233,US,35.6509,-88.39338
120445,Lexington,1421,OK,233,US,35.01479,-97.33558
120446,Lexington,1407,TX,233,US,30.4191,-97.01165
120447,Lexington,1427,VA,233,US,37.78402,-79.44282
120448,Lexington,1433,MA,233,US,42.44732,-71.2245
120449,Lexington,1425,IL,233,US,40.64142,-88.7834
120450,Lexington,1420,MN,233,US,45.14247,-93.16328
120451,Lexington,1426,MI,233,US,43.26808,-82.53076
120452,Lexington,1408,NE,233,US,40.78084,-99.7415
120453,Lexington County,1443,SC,233,US,33.90233,-81.27219
120454,Lexington Hills,1416,CA,233,US,37.16467,-121.97301
120455,Lexington Park,1401,MD,233,US,38.26679,-76.45384
120456,Lexington-Fayette,1419,KY,233,US,38.0498,-84.45855
120457,Libby,1446,MT,233,US,48.38829,-115.556
120458,Liberal,1406,KS,233,US,37.04308,-100.921
120459,Liberty,1419,KY,233,US,37.31841,-84.9394
120460,Liberty,1440,IN,233,US,39.6356,-84.93107
120461,Liberty,1451,MO,233,US,39.24611,-94.41912
120462,Liberty,1447,NC,233,US,35.85347,-79.57169
120463,Liberty,1430,MS,233,US,31.15823,-90.81232
120464,Liberty,1443,SC,233,US,34.78789,-82.69236
120465,Liberty,1407,TX,233,US,30.05799,-94.79548
120466,Liberty,1452,NY,233,US,41.8012,-74.74655
120467,Liberty,1422,PA,233,US,40.32535,-79.85616
120468,Liberty,1414,UT,233,US,41.33355,-111.86355
120469,Liberty City,1407,TX,233,US,32.44543,-94.94855
120470,Liberty County,1436,FL,233,US,30.24136,-84.88291
120471,Liberty County,1455,GA,233,US,31.80723,-81.45626
120472,Liberty County,1407,TX,233,US,30.15161,-94.81221
120473,Liberty County,1446,MT,233,US,48.56169,-111.02461
120474,Liberty Hill,1407,TX,233,US,30.66491,-97.92252
120475,Liberty Lake,1462,WA,233,US,47.67591,-117.11821
120476,Libertyville,1425,IL,233,US,42.28308,-87.95313
120477,Licking,1451,MO,233,US,37.49949,-91.8571
120478,Lido Beach,1452,NY,233,US,40.58899,-73.62541
120479,Light Street,1422,PA,233,US,41.0362,-76.42356
120480,Lighthouse Point,1436,FL,233,US,26.27564,-80.08727
120481,Ligonier,1440,IN,233,US,41.46588,-85.58748
120482,Ligonier,1422,PA,233,US,40.24313,-79.23753
120483,Lihue,1411,HI,233,US,21.98121,-159.3721
120484,Lilbourn,1451,MO,233,US,36.59228,-89.61536
120485,Lilburn,1455,GA,233,US,33.8901,-84.14297
120486,Lillington,1447,NC,233,US,35.39933,-78.81585
120487,Lily Lake,1425,IL,233,US,41.94892,-88.47786
120488,Lima,1422,PA,233,US,39.91733,-75.44047
120489,Lima,1452,NY,233,US,42.90479,-77.61139
120490,Limerick,1453,ME,233,US,43.68841,-70.79367
120491,Limerick,1422,PA,233,US,40.23093,-75.52212
120492,Limestone,1453,ME,233,US,46.90866,-67.82585
120493,Limestone,1425,IL,233,US,41.13237,-87.9684
120494,Limestone County,1456,AL,233,US,34.81008,-86.98137
120495,Limestone County,1407,TX,233,US,31.54546,-96.58053
120496,Limestone Creek,1436,FL,233,US,26.94284,-80.14115
120497,Limington,1453,ME,233,US,43.73174,-70.71089
120498,Limon,1450,CO,233,US,39.26388,-103.69217
120499,Lincoln,1456,AL,233,US,33.61316,-86.11831
120500,Lincoln,1444,AR,233,US,35.94953,-94.42355
120501,Lincoln,1406,KS,233,US,39.04084,-98.14477
120502,Lincoln,1451,MO,233,US,38.39086,-93.33465
120503,Lincoln,1425,IL,233,US,40.14838,-89.36482
120504,Lincoln,1433,MA,233,US,42.42593,-71.30395
120505,Lincoln,1453,ME,233,US,45.36228,-68.50502
120506,Lincoln,1408,NE,233,US,40.8,-96.66696
120507,Lincoln,1422,PA,233,US,40.31896,-79.85477
120508,Lincoln,1409,VT,233,US,44.10589,-72.99706
120509,Lincoln,1416,CA,233,US,38.89156,-121.29301
120510,Lincoln,1418,ND,233,US,46.76249,-100.7004
120511,Lincoln,1460,ID,233,US,43.51297,-111.96441
120512,Lincoln,1446,MT,233,US,46.95494,-112.68171
120513,Lincoln,1461,RI,233,US,41.92111,-71.435
120514,Lincoln Beach,1415,OR,233,US,44.85039,-124.04678
120515,Lincoln City,1415,OR,233,US,44.95816,-124.01789
120516,Lincoln County,1444,AR,233,US,33.95747,-91.73332
120517,Lincoln County,1455,GA,233,US,33.79366,-82.45121
120518,Lincoln County,1406,KS,233,US,39.04533,-98.2077
120519,Lincoln County,1419,KY,233,US,37.45535,-84.66081
120520,Lincoln County,1451,MO,233,US,39.05802,-90.96005
120521,Lincoln County,1430,MS,233,US,31.53239,-90.454
120522,Lincoln County,1447,NC,233,US,35.48618,-81.22387
120523,Lincoln County,1421,OK,233,US,35.703,-96.88092
120524,Lincoln County,1454,TN,233,US,35.14052,-86.58894
120525,Lincoln County,1429,WV,233,US,38.17536,-82.07039
120526,Lincoln County,1453,ME,233,US,43.99779,-69.52576
120527,Lincoln County,1420,MN,233,US,44.4126,-96.26709
120528,Lincoln County,1445,SD,233,US,43.27892,-96.72182
120529,Lincoln County,1441,WI,233,US,45.33746,-89.73461
120530,Lincoln County,1450,CO,233,US,38.98807,-103.51397
120531,Lincoln County,1423,NM,233,US,33.74524,-105.45925
120532,Lincoln County,1458,NV,233,US,37.64335,-114.87755
120533,Lincoln County,1460,ID,233,US,43.00241,-114.13831
120534,Lincoln County,1446,MT,233,US,48.54253,-115.40519
120535,Lincoln County,1408,NE,233,US,41.04777,-100.74523
120536,Lincoln County,1415,OR,233,US,44.64568,-123.9077
120537,Lincoln County,1462,WA,233,US,47.57619,-118.41879
120538,Lincoln County,1442,WY,233,US,42.26404,-110.65597
120539,Lincoln Parish,1457,LA,233,US,32.60164,-92.66482
120540,Lincoln Park,1425,IL,233,US,41.9217,-87.64783
120541,Lincoln Park,1426,MI,233,US,42.25059,-83.17854
120542,Lincoln Park,1417,NJ,233,US,40.92427,-74.30209
120543,Lincoln Park,1452,NY,233,US,41.95065,-73.99403
120544,Lincoln Park,1422,PA,233,US,40.31481,-75.98549
120545,Lincoln Park,1450,CO,233,US,38.42916,-105.21999
120546,Lincoln Square,1425,IL,233,US,41.97587,-87.68922
120547,Lincoln Village,1416,CA,233,US,38.0052,-121.32828
120548,Lincolndale,1452,NY,233,US,41.32287,-73.71819
120549,Lincolnia,1427,VA,233,US,38.81845,-77.14331
120550,Lincolnshire,1425,IL,233,US,42.19002,-87.9084
120551,Lincolnton,1455,GA,233,US,33.79235,-82.47902
120552,Lincolnton,1447,NC,233,US,35.47375,-81.25453
120553,Lincolnville,1443,SC,233,US,33.00684,-80.15537
120554,Lincolnville,1453,ME,233,US,44.28119,-69.00865
120555,Lincolnwood,1425,IL,233,US,42.00448,-87.73006
120556,Lincroft,1417,NJ,233,US,40.33067,-74.12097
120557,Linda,1416,CA,233,US,39.12767,-121.5508
120558,Lindale,1455,GA,233,US,34.18676,-85.17467
120559,Lindale,1407,TX,233,US,32.5157,-95.4094
120560,Linden,1456,AL,233,US,32.30625,-87.79807
120561,Linden,1454,TN,233,US,35.61729,-87.83947
120562,Linden,1407,TX,233,US,33.01235,-94.36547
120563,Linden,1426,MI,233,US,42.81447,-83.78245
120564,Linden,1417,NJ,233,US,40.62205,-74.24459
120565,Linden,1434,AZ,233,US,34.28504,-110.15706
120566,Linden,1416,CA,233,US,38.02131,-121.08383
120567,Lindenhurst,1425,IL,233,US,42.41058,-88.02619
120568,Lindenhurst,1452,NY,233,US,40.68677,-73.37345
120569,Lindenwold,1417,NJ,233,US,39.82428,-74.99767
120570,Lindley,1452,NY,233,US,42.02841,-77.13969
120571,Lindon,1414,UT,233,US,40.34329,-111.72076
120572,Lindsay,1421,OK,233,US,34.8348,-97.60253
120573,Lindsay,1407,TX,233,US,33.63594,-97.22279
120574,Lindsay,1416,CA,233,US,36.20301,-119.08816
120575,Lindsborg,1406,KS,233,US,38.57362,-97.67448
120576,Lindstrom,1420,MN,233,US,45.38941,-92.84799
120577,Lineville,1456,AL,233,US,33.31067,-85.75441
120578,Linganore,1401,MD,233,US,39.44038,-77.20804
120579,Linglestown,1422,PA,233,US,40.33398,-76.78914
120580,Linn,1451,MO,233,US,38.48587,-91.85045
120581,Linn County,1406,KS,233,US,38.21227,-94.84293
120582,Linn County,1451,MO,233,US,39.87021,-93.10718
120583,Linn County,1459,IA,233,US,42.07895,-91.59896
120584,Linn County,1415,OR,233,US,44.48857,-122.53419
120585,Linneus,1451,MO,233,US,39.87863,-93.18882
120586,Linntown,1422,PA,233,US,40.95897,-76.89913
120587,Lino Lakes,1420,MN,233,US,45.16024,-93.08883
120588,Linthicum,1401,MD,233,US,39.20511,-76.65275
120589,Linton,1440,IN,233,US,39.03477,-87.16585
120590,Linton,1418,ND,233,US,46.26666,-100.23289
120591,Linton Hall,1427,VA,233,US,38.75984,-77.57499
120592,Linwood,1417,NJ,233,US,39.33984,-74.57516
120593,Linwood,1422,PA,233,US,39.8265,-75.42547
120594,Lionville,1422,PA,233,US,40.05372,-75.65993
120595,Lipscomb,1456,AL,233,US,33.42566,-86.92666
120596,Lipscomb County,1407,TX,233,US,36.27771,-100.27312
120597,Lisbon,1435,CT,233,US,41.60399,-72.01174
120598,Lisbon,1459,IA,233,US,41.92112,-91.38545
120599,Lisbon,1453,ME,233,US,44.03146,-70.1045
120600,Lisbon,1418,ND,233,US,46.44163,-97.68121
120601,Lisbon Falls,1453,ME,233,US,43.99619,-70.06061
120602,Lisle,1425,IL,233,US,41.80114,-88.07479
120603,Litchfield,1425,IL,233,US,39.17533,-89.65426
120604,Litchfield,1435,CT,233,US,41.74732,-73.18872
120605,Litchfield,1420,MN,233,US,45.12718,-94.52805
120606,Litchfield,1426,MI,233,US,42.04393,-84.75746
120607,Litchfield,1404,NH,233,US,42.84425,-71.47979
120608,Litchfield County,1435,CT,233,US,41.79249,-73.24532
120609,Litchfield Park,1434,AZ,233,US,33.49337,-112.35794
120610,Lithia Springs,1455,GA,233,US,33.794,-84.66049
120611,Lithonia,1455,GA,233,US,33.71233,-84.10519
120612,Lititz,1422,PA,233,US,40.15732,-76.3069
120613,Little Canada,1420,MN,233,US,45.02691,-93.08772
120614,Little Chute,1441,WI,233,US,44.27999,-88.31844
120615,Little Cottonwood Creek Valley,1414,UT,233,US,40.60439,-111.82938
120616,Little Elm,1407,TX,233,US,33.16262,-96.93751
120617,Little Falls,1420,MN,233,US,45.97635,-94.3625
120618,Little Falls,1417,NJ,233,US,40.86899,-74.2082
120619,Little Falls,1452,NY,233,US,43.0434,-74.8596
120620,Little Ferry,1417,NJ,233,US,40.85288,-74.04208
120621,Little Flock,1444,AR,233,US,36.38591,-94.1352
120622,Little Neck,1452,NY,233,US,40.76289,-73.73225
120623,Little River,1443,SC,233,US,33.87323,-78.61418
120624,Little River County,1444,AR,233,US,33.70054,-94.23434
120625,Little River-Academy,1407,TX,233,US,30.98629,-97.35861
120626,Little Rock,1444,AR,233,US,34.74648,-92.28959
120627,Little Rock,1420,MN,233,US,47.86801,-95.11055
120628,Little Rock Air Force Base,1444,AR,233,US,34.89149,-92.15955
120629,Little Round Lake,1441,WI,233,US,45.96495,-91.36795
120630,Little Silver,1417,NJ,233,US,40.33678,-74.04708
120631,Little Valley,1452,NY,233,US,42.25256,-78.80559
120632,Littlefield,1407,TX,233,US,33.91731,-102.3249
120633,Littlerock,1416,CA,233,US,34.5211,-117.98368
120634,Littlestown,1422,PA,233,US,39.74454,-77.08804
120635,Littleton,1404,NH,233,US,44.30617,-71.77009
120636,Littleton,1450,CO,233,US,39.61332,-105.01665
120637,Littleton Common,1433,MA,233,US,42.54593,-71.47451
120638,Live Oak,1436,FL,233,US,30.29495,-82.98402
120639,Live Oak,1407,TX,233,US,29.56523,-98.3364
120640,Live Oak,1416,CA,233,US,36.98356,-121.98052
120641,Live Oak County,1407,TX,233,US,28.35137,-98.12479
120642,Livermore,1419,KY,233,US,37.4931,-87.13194
120643,Livermore,1453,ME,233,US,44.38396,-70.24922
120644,Livermore,1416,CA,233,US,37.68187,-121.76801
120645,Livermore Falls,1453,ME,233,US,44.47534,-70.18811
120646,Liverpool,1452,NY,233,US,43.10646,-76.2177
120647,Livingston,1456,AL,233,US,32.5843,-88.18725
120648,Livingston,1457,LA,233,US,30.50213,-90.74787
120649,Livingston,1454,TN,233,US,36.3834,-85.32302
120650,Livingston,1407,TX,233,US,30.71103,-94.93299
120651,Livingston,1417,NJ,233,US,40.79593,-74.31487
120652,Livingston,1416,CA,233,US,37.38688,-120.72353
120653,Livingston,1446,MT,233,US,45.66244,-110.56104
120654,Livingston County,1419,KY,233,US,37.2097,-88.35381
120655,Livingston County,1451,MO,233,US,39.78211,-93.54828
120656,Livingston County,1425,IL,233,US,40.89156,-88.55772
120657,Livingston County,1426,MI,233,US,42.60292,-83.91153
120658,Livingston County,1452,NY,233,US,42.72808,-77.77549
120659,Livingston Manor,1452,NY,233,US,41.90037,-74.82822
120660,Livingston Parish,1457,LA,233,US,30.44014,-90.72791
120661,Livonia,1457,LA,233,US,30.55908,-91.55594
120662,Livonia,1426,MI,233,US,42.36837,-83.35271
120663,Livonia,1452,NY,233,US,42.82145,-77.66861
120664,Llano,1407,TX,233,US,30.75935,-98.67504
120665,Llano County,1407,TX,233,US,30.70574,-98.6841
120666,Llano Grande,1407,TX,233,US,26.1298,-97.96806
120667,Lloyd Harbor,1452,NY,233,US,40.90343,-73.45984
120668,Loa,1414,UT,233,US,38.40276,-111.64296
120669,Loch Lomond,1427,VA,233,US,38.78623,-77.47804
120670,Lochbuie,1450,CO,233,US,40.00721,-104.71608
120671,Lochearn,1401,MD,233,US,39.34066,-76.72219
120672,Lochmoor Waterway Estates,1436,FL,233,US,26.64424,-81.90981
120673,Lochsloy,1462,WA,233,US,48.05149,-122.03208
120674,Lock Haven,1422,PA,233,US,41.13701,-77.44693
120675,Lockeford,1416,CA,233,US,38.16353,-121.14994
120676,Lockhart,1436,FL,233,US,28.61944,-81.44257
120677,Lockhart,1407,TX,233,US,29.88494,-97.67
120678,Lockney,1407,TX,233,US,34.12452,-101.44155
120679,Lockport,1457,LA,233,US,29.64605,-90.53925
120680,Lockport,1425,IL,233,US,41.58948,-88.05784
120681,Lockport,1452,NY,233,US,43.17061,-78.69031
120682,Lockport Heights,1457,LA,233,US,29.65049,-90.54647
120683,Lockwood,1446,MT,233,US,45.81912,-108.41486
120684,Locust,1447,NC,233,US,35.25987,-80.42534
120685,Locust Fork,1456,AL,233,US,33.9076,-86.61527
120686,Locust Grove,1455,GA,233,US,33.34595,-84.10908
120687,Locust Grove,1421,OK,233,US,36.20009,-95.16774
120688,Locust Valley,1452,NY,233,US,40.87593,-73.59707
120689,Lodi,1417,NJ,233,US,40.88232,-74.0832
120690,Lodi,1441,WI,233,US,43.31388,-89.52651
120691,Lodi,1416,CA,233,US,38.1302,-121.27245
120692,Lofall,1462,WA,233,US,47.81204,-122.65821
120693,Logan,1429,WV,233,US,37.84871,-81.99346
120694,Logan,1459,IA,233,US,41.64305,-95.7889
120695,Logan,1414,UT,233,US,41.73549,-111.83439
120696,Logan County,1444,AR,233,US,35.21527,-93.71631
120697,Logan County,1419,KY,233,US,36.8597,-86.87894
120698,Logan County,1421,OK,233,US,35.91934,-97.44332
120699,Logan County,1429,WV,233,US,37.83153,-81.93534
120700,Logan County,1425,IL,233,US,40.12456,-89.36755
120701,Logan County,1418,ND,233,US,46.45736,-99.47747
120702,Logan County,1406,KS,233,US,38.91734,-101.14839
120703,Logan County,1450,CO,233,US,40.72468,-103.1101
120704,Logan County,1408,NE,233,US,41.56649,-100.48286
120705,Logan Square,1425,IL,233,US,41.92337,-87.69922
120706,Logansport,1457,LA,233,US,31.97545,-93.99797
120707,Logansport,1440,IN,233,US,40.75448,-86.35667
120708,Loganville,1455,GA,233,US,33.839,-83.90074
120709,Loganville,1422,PA,233,US,39.85566,-76.70747
120710,Lolo,1446,MT,233,US,46.75881,-114.08094
120711,Loma,1450,CO,233,US,39.19581,-108.81316
120712,Loma Linda,1416,CA,233,US,34.04835,-117.26115
120713,Loma Rica,1416,CA,233,US,39.31183,-121.41774
120714,Lombard,1425,IL,233,US,41.88003,-88.00784
120715,Lomira,1441,WI,233,US,43.59138,-88.44371
120716,Lomita,1416,CA,233,US,33.79224,-118.31507
120717,Lompico,1416,CA,233,US,37.1055,-122.05274
120718,Lompoc,1416,CA,233,US,34.63915,-120.45794
120719,Lonaconing,1401,MD,233,US,39.56592,-78.9803
120720,London,1444,AR,233,US,35.32897,-93.25296
120721,London,1419,KY,233,US,37.12898,-84.08326
120722,London,1416,CA,233,US,36.47606,-119.44318
120723,Londonderry,1404,NH,233,US,42.86509,-71.37395
120724,Londonderry,1409,VT,233,US,43.22646,-72.80649
120725,Londontowne,1401,MD,233,US,38.93345,-76.54941
120726,Lone Grove,1421,OK,233,US,34.17537,-97.26279
120727,Lone Jack,1451,MO,233,US,38.87084,-94.17383
120728,Lone Oak,1454,TN,233,US,35.20063,-85.36413
120729,Lone Pine,1416,CA,233,US,36.60626,-118.06462
120730,Lone Star,1407,TX,233,US,32.94402,-94.70715
120731,Lone Tree,1459,IA,233,US,41.48808,-91.42599
120732,Lone Tree,1450,CO,233,US,39.55171,-104.8863
120733,Long Beach,1401,MD,233,US,38.46096,-76.46884
120734,Long Beach,1447,NC,233,US,33.91045,-78.11777
120735,Long Beach,1430,MS,233,US,30.35048,-89.15282
120736,Long Beach,1440,IN,233,US,41.73893,-86.85697
120737,Long Beach,1452,NY,233,US,40.58844,-73.65791
120738,Long Beach,1416,CA,233,US,33.76696,-118.18923
120739,Long Beach,1462,WA,233,US,46.35232,-124.05432
120740,Long Branch,1417,NJ,233,US,40.30428,-73.99236
120741,Long County,1455,GA,233,US,31.75258,-81.74577
120742,Long Creek,1425,IL,233,US,39.81198,-88.84757
120743,Long Grove,1425,IL,233,US,42.17836,-87.99785
120744,Long Hill,1435,CT,233,US,41.35399,-72.0523
120745,Long Island City,1452,NY,233,US,40.74482,-73.94875
120746,Long Lake,1425,IL,233,US,42.37085,-88.12758
120747,Long Lake,1420,MN,233,US,44.98663,-93.57162
120748,Long Neck,1399,DE,233,US,38.62011,-75.15074
120749,Long Prairie,1420,MN,233,US,45.97469,-94.86558
120750,Long Valley,1417,NJ,233,US,40.78593,-74.78016
120751,Longboat Key,1436,FL,233,US,27.41254,-82.65899
120752,Longbranch,1462,WA,233,US,47.20898,-122.7568
120753,Longmeadow,1433,MA,233,US,42.0501,-72.58287
120754,Longmont,1450,CO,233,US,40.16721,-105.10193
120755,Longtown,1421,OK,233,US,35.24538,-95.51276
120756,Longview,1447,NC,233,US,35.7293,-81.38342
120757,Longview,1407,TX,233,US,32.5007,-94.74049
120758,Longview,1462,WA,233,US,46.13817,-122.93817
120759,Longview Heights,1462,WA,233,US,46.18039,-122.95706
120760,Longwood,1436,FL,233,US,28.70305,-81.3384
120761,Lonoke,1444,AR,233,US,34.78398,-91.89986
120762,Lonoke County,1444,AR,233,US,34.75427,-91.88867
120763,Lonsdale,1420,MN,233,US,44.48024,-93.42856
120764,Loogootee,1440,IN,233,US,38.67699,-86.91417
120765,Lookout Mountain,1455,GA,233,US,34.97758,-85.35774
120766,Lookout Mountain,1454,TN,233,US,34.99424,-85.3494
120767,Loomis,1416,CA,233,US,38.82129,-121.193
120768,Lopezville,1407,TX,233,US,26.23813,-98.15973
120769,Lorane,1422,PA,233,US,40.28843,-75.85465
120770,Lordsburg,1423,NM,233,US,32.35036,-108.70866
120771,Lorena,1407,TX,233,US,31.38656,-97.21556
120772,Lorenz Park,1452,NY,233,US,42.2637,-73.76846
120773,Lorenzo,1407,TX,233,US,33.67064,-101.53516
120774,Loretto,1454,TN,233,US,35.07786,-87.43974
120775,Loretto,1422,PA,233,US,40.50313,-78.6303
120776,Loris,1443,SC,233,US,34.05628,-78.8903
120777,Lorton,1427,VA,233,US,38.70428,-77.22776
120778,Los Alamitos,1416,CA,233,US,33.80307,-118.07256
120779,Los Alamos,1416,CA,233,US,34.74443,-120.27821
120780,Los Alamos,1423,NM,233,US,35.88808,-106.30697
120781,Los Alamos County,1423,NM,233,US,35.86937,-106.30729
120782,Los Altos,1416,CA,233,US,37.38522,-122.11413
120783,Los Altos Hills,1416,CA,233,US,37.37966,-122.13746
120784,Los Angeles,1416,CA,233,US,34.05223,-118.24368
120785,Los Angeles County,1416,CA,233,US,34.19801,-118.26102
120786,Los Banos,1416,CA,233,US,37.05828,-120.84992
120787,Los Chavez,1423,NM,233,US,34.72571,-106.75726
120788,Los Fresnos,1407,TX,233,US,26.07174,-97.47637
120789,Los Gatos,1416,CA,233,US,37.22661,-121.97468
120790,Los Indios,1407,TX,233,US,26.04924,-97.74499
120791,Los Lunas,1423,NM,233,US,34.80617,-106.73336
120792,Los Molinos,1416,CA,233,US,40.02127,-122.10027
120793,Los Olivos,1416,CA,233,US,34.66776,-120.11487
120794,Los Osos,1416,CA,233,US,35.31109,-120.8324
120795,Los Ranchos de Albuquerque,1423,NM,233,US,35.16199,-106.6428
120796,Los Serranos,1416,CA,233,US,33.97279,-117.70811
120797,Lost Creek,1407,TX,233,US,30.29548,-97.84445
120798,Lost Hills,1416,CA,233,US,35.61635,-119.69429
120799,Loudon,1454,TN,233,US,35.73285,-84.33381
120800,Loudon County,1454,TN,233,US,35.73478,-84.31187
120801,Loudoun County,1427,VA,233,US,39.09068,-77.63572
120802,Loudoun Valley Estates,1427,VA,233,US,38.98081,-77.5079
120803,Loughman,1436,FL,233,US,28.24196,-81.56674
120804,Louisa,1419,KY,233,US,38.11425,-82.60321
120805,Louisa,1427,VA,233,US,38.02514,-78.00416
120806,Louisa County,1427,VA,233,US,37.97821,-77.96298
120807,Louisa County,1459,IA,233,US,41.21851,-91.25962
120808,Louisburg,1406,KS,233,US,38.61946,-94.68079
120809,Louisburg,1447,NC,233,US,36.09904,-78.30111
120810,Louisiana,1451,MO,233,US,39.44894,-91.05153
120811,Louisville,1455,GA,233,US,33.00154,-82.41124
120812,Louisville,1425,IL,233,US,38.77227,-88.50255
120813,Louisville,1419,KY,233,US,38.25424,-85.75941
120814,Louisville,1430,MS,233,US,33.12374,-89.05506
120815,Louisville,1454,TN,233,US,35.82175,-84.04796
120816,Louisville,1408,NE,233,US,40.99778,-96.16224
120817,Louisville,1450,CO,233,US,39.97776,-105.13193
120818,Loup City,1408,NE,233,US,41.27557,-98.96675
120819,Loup County,1408,NE,233,US,41.91385,-99.45442
120820,Love County,1421,OK,233,US,33.94986,-97.24418
120821,Lovejoy,1455,GA,233,US,33.43622,-84.31437
120822,Loveland,1450,CO,233,US,40.39776,-105.07498
120823,Lovell,1453,ME,233,US,44.12674,-70.89173
120824,Lovell,1442,WY,233,US,44.83745,-108.38956
120825,Lovelock,1458,NV,233,US,40.17935,-118.47348
120826,Loves Park,1425,IL,233,US,42.32002,-89.05816
120827,Lovettsville,1427,VA,233,US,39.2726,-77.63666
120828,Loving,1423,NM,233,US,32.28623,-104.09577
120829,Loving County,1407,TX,233,US,31.84923,-103.57996
120830,Lovingston,1427,VA,233,US,37.75986,-78.87086
120831,Lovington,1425,IL,233,US,39.71559,-88.63256
120832,Lovington,1423,NM,233,US,32.94401,-103.34855
120833,Lowell,1444,AR,233,US,36.25535,-94.13076
120834,Lowell,1447,NC,233,US,35.26792,-81.10285
120835,Lowell,1440,IN,233,US,41.29142,-87.42059
120836,Lowell,1433,MA,233,US,42.63342,-71.31617
120837,Lowell,1426,MI,233,US,42.93364,-85.34196
120838,Lowell,1415,OR,233,US,43.91846,-122.78368
120839,Lower Allen,1422,PA,233,US,40.22648,-76.90053
120840,Lower Burrell,1422,PA,233,US,40.55312,-79.75727
120841,Lower Grand Lagoon,1436,FL,233,US,30.14409,-85.75076
120842,Lower Lake,1416,CA,233,US,38.91045,-122.61026
120843,Lower West Side,1425,IL,233,US,41.8542,-87.66561
120844,Lowes Island,1427,VA,233,US,39.05983,-77.35221
120845,Lowesville,1447,NC,233,US,35.41708,-81.01119
120846,Lowndes County,1456,AL,233,US,32.15475,-86.65011
120847,Lowndes County,1455,GA,233,US,30.83386,-83.26771
120848,Lowndes County,1430,MS,233,US,33.47291,-88.44331
120849,Lowry Crossing,1407,TX,233,US,33.15484,-96.54721
120850,Lowville,1452,NY,233,US,43.78674,-75.49185
120851,Loxahatchee Groves,1436,FL,233,US,26.68368,-80.27977
120852,Loxley,1456,AL,233,US,30.61825,-87.75305
120853,Loyal,1441,WI,233,US,44.73691,-90.49597
120854,Loyalhanna,1422,PA,233,US,40.32257,-79.36226
120855,Loyola,1416,CA,233,US,37.35133,-122.10052
120856,Lubbock,1407,TX,233,US,33.57786,-101.85517
120857,Lubbock County,1407,TX,233,US,33.61021,-101.82055
120858,Lubeck,1429,WV,233,US,39.23535,-81.63124
120859,Lucama,1447,NC,233,US,35.64544,-78.00971
120860,Lucas,1407,TX,233,US,33.08429,-96.57666
120861,Lucas County,1459,IA,233,US,41.02937,-93.32772
120862,Lucas Valley-Marinwood,1416,CA,233,US,38.04011,-122.5755
120863,Luce County,1426,MI,233,US,46.36778,-85.50934
120864,Lucedale,1430,MS,233,US,30.92519,-88.59002
120865,Lucerne,1416,CA,233,US,36.38078,-119.6643
120866,Lucerne Valley,1416,CA,233,US,34.44389,-116.96781
120867,Luck,1441,WI,233,US,45.57607,-92.4827
120868,Ludington,1426,MI,233,US,43.95528,-86.45258
120869,Ludlow,1419,KY,233,US,39.09256,-84.54744
120870,Ludlow,1433,MA,233,US,42.16009,-72.47592
120871,Ludowici,1455,GA,233,US,31.70799,-81.74234
120872,Lufkin,1407,TX,233,US,31.33824,-94.7291
120873,Lugoff,1443,SC,233,US,34.22737,-80.68925
120874,Lukachukai,1434,AZ,233,US,36.41695,-109.22871
120875,Lula,1455,GA,233,US,34.3876,-83.66629
120876,Luling,1457,LA,233,US,29.93215,-90.36647
120877,Luling,1407,TX,233,US,29.68051,-97.6475
120878,Lumber City,1455,GA,233,US,31.92935,-82.67958
120879,Lumberton,1430,MS,233,US,31.00129,-89.45229
120880,Lumberton,1447,NC,233,US,34.61834,-79.01045
120881,Lumberton,1407,TX,233,US,30.26577,-94.19963
120882,Lumpkin,1455,GA,233,US,32.05099,-84.79909
120883,Lumpkin County,1455,GA,233,US,34.57219,-84.00265
120884,Luna County,1423,NM,233,US,32.18215,-107.74977
120885,Luna Pier,1426,MI,233,US,41.80699,-83.44243
120886,Lunenburg,1427,VA,233,US,36.96098,-78.26555
120887,Lunenburg,1433,MA,233,US,42.59453,-71.72452
120888,Lunenburg,1409,VT,233,US,44.46311,-71.68203
120889,Lunenburg County,1427,VA,233,US,36.94621,-78.24057
120890,Luray,1427,VA,233,US,38.6654,-78.45945
120891,Lusby,1401,MD,233,US,38.41068,-76.45523
120892,Lusk,1442,WY,233,US,42.76247,-104.45217
120893,Lutcher,1457,LA,233,US,30.04048,-90.69898
120894,Luther,1421,OK,233,US,35.66173,-97.19559
120895,Lutherville,1401,MD,233,US,39.42122,-76.62608
120896,Lutherville-Timonium,1401,MD,233,US,39.43997,-76.61099
120897,Luttrell,1454,TN,233,US,36.19953,-83.74185
120898,Lutz,1436,FL,233,US,28.15112,-82.46148
120899,Luverne,1456,AL,233,US,31.71655,-86.26385
120900,Luverne,1420,MN,233,US,43.65414,-96.21281
120901,Luxemburg,1441,WI,233,US,44.53861,-87.70398
120902,Luxora,1444,AR,233,US,35.75619,-89.92814
120903,Luzerne,1422,PA,233,US,41.28564,-75.90103
120904,Luzerne County,1422,PA,233,US,41.17701,-75.98903
120905,Lycoming County,1422,PA,233,US,41.34338,-77.06451
120906,Lyford,1407,TX,233,US,26.41229,-97.78972
120907,Lykens,1422,PA,233,US,40.56675,-76.70052
120908,Lyman,1430,MS,233,US,30.49474,-89.12561
120909,Lyman,1443,SC,233,US,34.94817,-82.12733
120910,Lyman,1442,WY,233,US,41.32745,-110.29293
120911,Lyman County,1445,SD,233,US,43.89582,-99.84738
120912,Lyme,1404,NH,233,US,43.80951,-72.15592
120913,Lynbrook,1452,NY,233,US,40.65483,-73.6718
120914,Lynchburg,1430,MS,233,US,34.96232,-90.09593
120915,Lynchburg,1454,TN,233,US,35.28314,-86.37416
120916,Lynchburg,1427,VA,233,US,37.41375,-79.14225
120917,Lyncourt,1452,NY,233,US,43.08146,-76.12576
120918,Lyndeborough,1404,NH,233,US,42.90758,-71.76646
120919,Lynden,1462,WA,233,US,48.9465,-122.45211
120920,Lyndhurst,1427,VA,233,US,38.0293,-78.94502
120921,Lyndhurst,1417,NJ,233,US,40.81204,-74.12431
120922,Lyndon,1406,KS,233,US,38.61001,-95.68443
120923,Lyndon,1419,KY,233,US,38.25674,-85.60163
120924,Lyndon,1409,VT,233,US,44.51422,-72.01093
120925,Lyndonville,1409,VT,233,US,44.53367,-72.00315
120926,Lynn,1440,IN,233,US,40.04977,-84.93969
120927,Lynn,1433,MA,233,US,42.46676,-70.94949
120928,Lynn County,1407,TX,233,US,33.17682,-101.81612
120929,Lynn Haven,1436,FL,233,US,30.24548,-85.64826
120930,Lynnfield,1433,MA,233,US,42.53898,-71.04811
120931,Lynnwood,1462,WA,233,US,47.82093,-122.31513
120932,Lynnwood-Pricedale,1422,PA,233,US,40.13071,-79.85135
120933,Lynwood,1425,IL,233,US,41.52642,-87.53865
120934,Lynwood,1416,CA,233,US,33.93029,-118.21146
120935,Lyon County,1406,KS,233,US,38.45619,-96.15264
120936,Lyon County,1419,KY,233,US,37.01913,-88.08328
120937,Lyon County,1459,IA,233,US,43.3805,-96.21029
120938,Lyon County,1420,MN,233,US,44.41349,-95.83897
120939,Lyon County,1458,NV,233,US,39.0204,-119.1892
120940,Lyons,1455,GA,233,US,32.20435,-82.32179
120941,Lyons,1406,KS,233,US,38.34501,-98.20173
120942,Lyons,1425,IL,233,US,41.81337,-87.81811
120943,Lyons,1452,NY,233,US,43.06423,-76.99025
120944,Lyons,1415,OR,233,US,44.77457,-122.61509
120945,Lyons,1450,CO,233,US,40.22471,-105.27138
120946,Lytle,1407,TX,233,US,29.23329,-98.79641
120947,LƒÅ‚Äòie,1411,HI,233,US,21.64547,-157.9225
120948,Mabank,1407,TX,233,US,32.36653,-96.10081
120949,Mableton,1455,GA,233,US,33.81872,-84.58243
120950,Mabscott,1429,WV,233,US,37.77095,-81.20843
120951,Mabton,1462,WA,233,US,46.21485,-119.99671
120952,MacArthur,1429,WV,233,US,37.75845,-81.2126
120953,Macclenny,1436,FL,233,US,30.28218,-82.12206
120954,Macedon,1452,NY,233,US,43.06923,-77.29887
120955,Machesney Park,1425,IL,233,US,42.34724,-89.039
120956,Machias,1453,ME,233,US,44.71508,-67.46138
120957,Machias,1462,WA,233,US,47.98149,-122.04596
120958,Machiasport,1453,ME,233,US,44.69869,-67.39471
120959,Mackinac County,1426,MI,233,US,45.87184,-84.76227
120960,Mackinaw,1425,IL,233,US,40.53698,-89.35759
120961,Macomb,1425,IL,233,US,40.45921,-90.6718
120962,Macomb County,1426,MI,233,US,42.67279,-82.91016
120963,Macon,1425,IL,233,US,39.71282,-88.99702
120964,Macon,1455,GA,233,US,32.84069,-83.6324
120965,Macon,1451,MO,233,US,39.74226,-92.47269
120966,Macon,1430,MS,233,US,33.1054,-88.56088
120967,Macon County,1456,AL,233,US,32.38597,-85.69267
120968,Macon County,1455,GA,233,US,32.35839,-84.04248
120969,Macon County,1425,IL,233,US,39.86,-88.9616
120970,Macon County,1451,MO,233,US,39.8308,-92.56461
120971,Macon County,1447,NC,233,US,35.15038,-83.4221
120972,Macon County,1454,TN,233,US,36.53203,-86.00727
120973,Macoupin County,1425,IL,233,US,39.26102,-89.92443
120974,Macungie,1422,PA,233,US,40.51593,-75.55519
120975,Macy,1408,NE,233,US,42.11305,-96.35642
120976,Madawaska,1453,ME,233,US,46.88421,-67.94725
120977,Madbury,1404,NH,233,US,43.16925,-70.92395
120978,Madeira Beach,1436,FL,233,US,27.79808,-82.79732
120979,Madelia,1420,MN,233,US,44.05079,-94.4183
120980,Madera,1416,CA,233,US,36.96134,-120.06072
120981,Madera Acres,1416,CA,233,US,37.01911,-120.06683
120982,Madera County,1416,CA,233,US,37.21804,-119.76265
120983,Madill,1421,OK,233,US,34.09038,-96.77167
120984,Madison,1456,AL,233,US,34.69926,-86.74833
120985,Madison,1436,FL,233,US,30.46938,-83.41293
120986,Madison,1455,GA,233,US,33.59568,-83.46794
120987,Madison,1425,IL,233,US,38.68255,-90.15705
120988,Madison,1440,IN,233,US,38.73589,-85.37996
120989,Madison,1430,MS,233,US,32.46181,-90.11536
120990,Madison,1447,NC,233,US,36.38542,-79.95949
120991,Madison,1427,VA,233,US,38.38041,-78.2575
120992,Madison,1435,CT,233,US,41.27954,-72.59843
120993,Madison,1429,WV,233,US,38.06705,-81.81929
120994,Madison,1420,MN,233,US,45.00968,-96.19588
120995,Madison,1453,ME,233,US,44.79756,-69.87978
120996,Madison,1404,NH,233,US,43.89924,-71.1484
120997,Madison,1408,NE,233,US,41.82834,-97.45505
120998,Madison,1417,NJ,233,US,40.75982,-74.4171
120999,Madison,1441,WI,233,US,43.07305,-89.40123
121000,Madison,1445,SD,233,US,44.00608,-97.11395
121001,Madison Center,1435,CT,233,US,41.27925,-72.60048
121002,Madison County,1456,AL,233,US,34.76309,-86.55021
121003,Madison County,1444,AR,233,US,36.01096,-93.72456
121004,Madison County,1436,FL,233,US,30.44414,-83.47012
121005,Madison County,1455,GA,233,US,34.12778,-83.20904
121006,Madison County,1425,IL,233,US,38.82985,-89.90517
121007,Madison County,1419,KY,233,US,37.72018,-84.278
121008,Madison County,1451,MO,233,US,37.4781,-90.34503
121009,Madison County,1430,MS,233,US,32.63466,-90.03376
121010,Madison County,1447,NC,233,US,35.85809,-82.70576
121011,Madison County,1454,TN,233,US,35.60814,-88.83847
121012,Madison County,1407,TX,233,US,30.96554,-95.92841
121013,Madison County,1427,VA,233,US,38.41369,-78.27924
121014,Madison County,1459,IA,233,US,41.33071,-94.01556
121015,Madison County,1440,IN,233,US,40.16166,-85.71935
121016,Madison County,1408,NE,233,US,41.9167,-97.60078
121017,Madison County,1452,NY,233,US,42.91277,-75.66967
121018,Madison County,1460,ID,233,US,43.78419,-111.65934
121019,Madison County,1446,MT,233,US,45.30074,-111.92033
121020,Madison Heights,1427,VA,233,US,37.43098,-79.12308
121021,Madison Heights,1426,MI,233,US,42.48587,-83.1052
121022,Madison Lake,1420,MN,233,US,44.20441,-93.81551
121023,Madison Parish,1457,LA,233,US,32.3644,-91.24258
121024,Madison Park,1417,NJ,233,US,40.4515,-74.30792
121025,Madisonville,1419,KY,233,US,37.3281,-87.49889
121026,Madisonville,1454,TN,233,US,35.5198,-84.36353
121027,Madisonville,1407,TX,233,US,30.94991,-95.91162
121028,Madras,1415,OR,233,US,44.63345,-121.12949
121029,Madrid,1459,IA,233,US,41.87665,-93.82328
121030,Maeser,1414,UT,233,US,40.47718,-109.58681
121031,Magalia,1416,CA,233,US,39.81211,-121.57831
121032,Magee,1430,MS,233,US,31.87377,-89.73369
121033,Maggie Valley,1447,NC,233,US,35.51816,-83.09764
121034,Magna,1414,UT,233,US,40.70911,-112.10161
121035,Magnolia,1444,AR,233,US,33.26707,-93.23933
121036,Magnolia,1430,MS,233,US,31.14323,-90.45871
121037,Magnolia,1417,NJ,233,US,39.85456,-75.03906
121038,Magnolia,1407,TX,233,US,30.20938,-95.75078
121039,Magoffin County,1419,KY,233,US,37.70647,-83.06491
121040,Mahanoy City,1422,PA,233,US,40.81259,-76.1416
121041,Maharishi Vedic City,1459,IA,233,US,41.05252,-91.9949
121042,Mahaska County,1459,IA,233,US,41.3352,-92.64091
121043,Mahnomen,1420,MN,233,US,47.31524,-95.96865
121044,Mahnomen County,1420,MN,233,US,47.32524,-95.80905
121045,Mahomet,1425,IL,233,US,40.19531,-88.40422
121046,Mahopac,1452,NY,233,US,41.37232,-73.73346
121047,Mahtomedi,1420,MN,233,US,45.06969,-92.9516
121048,Mahwah,1417,NJ,233,US,41.08871,-74.14376
121049,Maiden,1447,NC,233,US,35.57569,-81.21175
121050,Maine,1441,WI,233,US,45.02716,-89.69039
121051,Maitland,1436,FL,233,US,28.62778,-81.36312
121052,Maize,1406,KS,233,US,37.77918,-97.46727
121053,Major County,1421,OK,233,US,36.31164,-98.53595
121054,Makakilo City,1411,HI,233,US,21.34694,-158.08583
121055,Makawao,1411,HI,233,US,20.85694,-156.31306
121056,Malabar,1436,FL,233,US,28.00363,-80.56561
121057,Malad City,1460,ID,233,US,42.19159,-112.2508
121058,Malakoff,1407,TX,233,US,32.1696,-96.01247
121059,Malden,1451,MO,233,US,36.557,-89.96648
121060,Malden,1433,MA,233,US,42.4251,-71.06616
121061,Malheur County,1415,OR,233,US,43.19341,-117.62307
121062,Malibu,1416,CA,233,US,34.02577,-118.7804
121063,Mallory,1429,WV,233,US,37.73066,-81.8379
121064,Malmstrom Air Force Base,1446,MT,233,US,47.50549,-111.18302
121065,Malone,1436,FL,233,US,30.95769,-85.16215
121066,Malone,1452,NY,233,US,44.84866,-74.2949
121067,Malta,1425,IL,233,US,41.92975,-88.86092
121068,Malta,1446,MT,233,US,48.35972,-107.87428
121069,Maltby,1462,WA,233,US,47.8051,-122.11318
121070,Malvern,1456,AL,233,US,31.13934,-85.5191
121071,Malvern,1444,AR,233,US,34.36231,-92.81295
121072,Malvern,1459,IA,233,US,41.00278,-95.58528
121073,Malvern,1422,PA,233,US,40.03622,-75.51381
121074,Malverne,1452,NY,233,US,40.67899,-73.67402
121075,Mamaroneck,1452,NY,233,US,40.94871,-73.73263
121076,Mammoth,1434,AZ,233,US,32.72257,-110.64065
121077,Mammoth Lakes,1416,CA,233,US,37.64855,-118.97208
121078,Mamou,1457,LA,233,US,30.63381,-92.4193
121079,Manahawkin,1417,NJ,233,US,39.6954,-74.25875
121080,Manasota Key,1436,FL,233,US,26.92534,-82.35204
121081,Manasquan,1417,NJ,233,US,40.12623,-74.0493
121082,Manassas,1427,VA,233,US,38.75095,-77.47527
121083,Manassas Park,1427,VA,233,US,38.784,-77.46971
121084,Manatee County,1436,FL,233,US,27.47752,-82.35754
121085,Manatee Road,1436,FL,233,US,29.51302,-82.91429
121086,Manawa,1441,WI,233,US,44.46443,-88.91983
121087,Mancelona,1426,MI,233,US,44.90223,-85.06088
121088,Manchaca,1407,TX,233,US,30.14077,-97.83306
121089,Manchester,1455,GA,233,US,32.85985,-84.61993
121090,Manchester,1401,MD,233,US,39.66121,-76.88498
121091,Manchester,1419,KY,233,US,37.1537,-83.76186
121092,Manchester,1451,MO,233,US,38.597,-90.50929
121093,Manchester,1454,TN,233,US,35.48174,-86.0886
121094,Manchester,1435,CT,233,US,41.77593,-72.52148
121095,Manchester,1459,IA,233,US,42.48415,-91.45543
121096,Manchester,1426,MI,233,US,42.15032,-84.03772
121097,Manchester,1453,ME,233,US,44.32451,-69.86033
121098,Manchester,1404,NH,233,US,42.99564,-71.45479
121099,Manchester,1452,NY,233,US,42.96979,-77.23026
121100,Manchester,1422,PA,233,US,40.06315,-76.7183
121101,Manchester,1441,WI,233,US,43.69054,-89.04845
121102,Manchester,1462,WA,233,US,47.55566,-122.54507
121103,Manchester Center,1409,VT,233,US,43.17702,-73.05705
121104,Manchester-by-the-Sea,1433,MA,233,US,42.57787,-70.76894
121105,Mancos,1450,CO,233,US,37.345,-108.28925
121106,Mandan,1418,ND,233,US,46.82666,-100.88958
121107,Mandeville,1457,LA,233,US,30.35825,-90.06563
121108,Mango,1436,FL,233,US,27.97974,-82.30648
121109,Mangonia Park,1436,FL,233,US,26.76034,-80.07365
121110,Mangum,1421,OK,233,US,34.872,-99.50426
121111,Manhasset,1452,NY,233,US,40.79788,-73.69957
121112,Manhasset Hills,1452,NY,233,US,40.75927,-73.67985
121113,Manhattan,1406,KS,233,US,39.18361,-96.57167
121114,Manhattan,1425,IL,233,US,41.42253,-87.98589
121115,Manhattan,1452,NY,233,US,40.78343,-73.96625
121116,Manhattan,1446,MT,233,US,45.8566,-111.33246
121117,Manhattan Beach,1416,CA,233,US,33.88474,-118.41091
121118,Manheim,1422,PA,233,US,40.16343,-76.39496
121119,Manila,1444,AR,233,US,35.88007,-90.16704
121120,Manila,1414,UT,233,US,40.98801,-109.72265
121121,Manistee,1426,MI,233,US,44.24445,-86.32425
121122,Manistee County,1426,MI,233,US,44.23831,-86.28799
121123,Manistique,1426,MI,233,US,45.95775,-86.24625
121124,Manito,1425,IL,233,US,40.42587,-89.77928
121125,Manitou Beach-Devils Lake,1426,MI,233,US,41.97565,-84.28616
121126,Manitou Springs,1450,CO,233,US,38.85971,-104.9172
121127,Manitowoc,1441,WI,233,US,44.08861,-87.65758
121128,Manitowoc County,1441,WI,233,US,44.09054,-87.69974
121129,Mankato,1406,KS,233,US,39.78723,-98.21005
121130,Mankato,1420,MN,233,US,44.15906,-94.00915
121131,Manlius,1452,NY,233,US,43.00201,-75.97686
121132,Manly,1459,IA,233,US,43.28718,-93.20215
121133,Mannford,1421,OK,233,US,36.13341,-96.35446
121134,Manning,1443,SC,233,US,33.69516,-80.21091
121135,Manning,1459,IA,233,US,41.90915,-95.06499
121136,Manning,1418,ND,233,US,47.23001,-102.77019
121137,Mannington,1429,WV,233,US,39.53092,-80.34342
121138,Manor,1407,TX,233,US,30.34076,-97.55695
121139,Manor,1422,PA,233,US,40.33396,-79.67004
121140,Manorhaven,1452,NY,233,US,40.84316,-73.71485
121141,Manorville,1452,NY,233,US,40.87371,-72.80788
121142,Mansfield,1444,AR,233,US,35.05954,-94.25271
121143,Mansfield,1451,MO,233,US,37.10672,-92.58072
121144,Mansfield,1457,LA,233,US,32.03766,-93.70018
121145,Mansfield,1407,TX,233,US,32.56319,-97.14168
121146,Mansfield,1433,MA,233,US,42.03343,-71.21894
121147,Mansfield,1422,PA,233,US,41.8073,-77.07747
121148,Mansfield Center,1433,MA,233,US,42.02262,-71.21808
121149,Mansfield City,1435,CT,233,US,41.76593,-72.23369
121150,Manson,1459,IA,233,US,42.52914,-94.53414
121151,Manson,1462,WA,233,US,47.88486,-120.15841
121152,Mansura,1457,LA,233,US,31.05797,-92.04901
121153,Mantachie,1430,MS,233,US,34.32427,-88.49116
121154,Manteca,1416,CA,233,US,37.79743,-121.21605
121155,Manteno,1425,IL,233,US,41.25059,-87.83143
121156,Manteo,1447,NC,233,US,35.90823,-75.67573
121157,Manti,1414,UT,233,US,39.2683,-111.63686
121158,Manton,1426,MI,233,US,44.41084,-85.39894
121159,Mantorville,1420,MN,233,US,44.06913,-92.75575
121160,Mantua,1427,VA,233,US,38.85372,-77.25943
121161,Manvel,1407,TX,233,US,29.46274,-95.35799
121162,Manville,1417,NJ,233,US,40.54094,-74.58766
121163,Many,1457,LA,233,US,31.56878,-93.48406
121164,Many Farms,1434,AZ,233,US,36.35278,-109.61789
121165,Maple Bluff,1441,WI,233,US,43.11833,-89.37956
121166,Maple Glen,1422,PA,233,US,40.17928,-75.18045
121167,Maple Grove,1420,MN,233,US,45.07246,-93.45579
121168,Maple Heights-Lake Desire,1462,WA,233,US,47.44413,-122.09736
121169,Maple Lake,1420,MN,233,US,45.22913,-94.00192
121170,Maple Park,1425,IL,233,US,41.90753,-88.59925
121171,Maple Plain,1420,MN,233,US,45.00719,-93.65579
121172,Maple Shade,1417,NJ,233,US,39.95261,-74.99239
121173,Maple Valley,1462,WA,233,US,47.39272,-122.04641
121174,Mapleton,1459,IA,233,US,42.16582,-95.79306
121175,Mapleton,1420,MN,233,US,43.92885,-93.95606
121176,Mapleton,1414,UT,233,US,40.13023,-111.57853
121177,Maplewood,1451,MO,233,US,38.61255,-90.32456
121178,Maplewood,1420,MN,233,US,44.95302,-92.99522
121179,Maplewood,1417,NJ,233,US,40.73121,-74.27348
121180,Maplewood,1462,WA,233,US,47.40176,-122.55707
121181,Maquoketa,1459,IA,233,US,42.06891,-90.66569
121182,Mar-Mac,1447,NC,233,US,35.33488,-78.05582
121183,Marana,1434,AZ,233,US,32.43674,-111.22538
121184,Marathon,1436,FL,233,US,24.71375,-81.09035
121185,Marathon,1441,WI,233,US,44.92913,-89.8404
121186,Marathon County,1441,WI,233,US,44.89829,-89.75906
121187,Marble Falls,1407,TX,233,US,30.57841,-98.27507
121188,Marble Hill,1451,MO,233,US,37.30589,-89.97038
121189,Marblehead,1433,MA,233,US,42.5001,-70.85783
121190,Marbleton,1442,WY,233,US,42.55355,-110.10932
121191,Marbletown,1452,NY,233,US,41.88343,-74.1132
121192,Marbury,1456,AL,233,US,32.70124,-86.47109
121193,Marceline,1451,MO,233,US,39.71197,-92.94825
121194,Marcellus,1426,MI,233,US,42.02588,-85.81556
121195,Marcellus,1452,NY,233,US,42.98284,-76.34049
121196,March Air Force Base,1416,CA,233,US,33.89209,-117.2631
121197,Marco,1436,FL,233,US,25.9726,-81.72898
121198,Marco Island,1436,FL,233,US,25.94121,-81.71842
121199,Marcus,1459,IA,233,US,42.82582,-95.80751
121200,Marcus Hook,1422,PA,233,US,39.81928,-75.41853
121201,Marengo,1459,IA,233,US,41.79806,-92.07074
121202,Marengo,1425,IL,233,US,42.24863,-88.60843
121203,Marengo County,1456,AL,233,US,32.24761,-87.78952
121204,Marfa,1407,TX,233,US,30.30973,-104.02134
121205,Margaret,1456,AL,233,US,33.68621,-86.47498
121206,Margate,1436,FL,233,US,26.24453,-80.20644
121207,Margate City,1417,NJ,233,US,39.32789,-74.50349
121208,Marianna,1444,AR,233,US,34.77371,-90.75761
121209,Marianna,1436,FL,233,US,30.77436,-85.22687
121210,Marianne,1422,PA,233,US,41.24645,-79.42893
121211,Maricopa,1434,AZ,233,US,33.05811,-112.04764
121212,Maricopa,1416,CA,233,US,35.05886,-119.40095
121213,Maricopa County,1434,AZ,233,US,33.34883,-112.49123
121214,Marienville,1422,PA,233,US,41.46895,-79.1231
121215,Maries County,1451,MO,233,US,38.16163,-91.92489
121216,Marietta,1455,GA,233,US,33.9526,-84.54993
121217,Marietta,1421,OK,233,US,33.93704,-97.11668
121218,Marietta,1422,PA,233,US,40.05704,-76.55219
121219,Marietta,1462,WA,233,US,48.78705,-122.58045
121220,Marietta-Alderwood,1462,WA,233,US,48.78965,-122.55369
121221,Marin City,1416,CA,233,US,37.86854,-122.50914
121222,Marin County,1416,CA,233,US,38.05518,-122.74886
121223,Marina,1416,CA,233,US,36.6844,-121.80217
121224,Marina del Rey,1416,CA,233,US,33.98029,-118.45174
121225,Marine City,1426,MI,233,US,42.71948,-82.49213
121226,Marine Corps Base Hawaii - MCBH,1411,HI,233,US,21.44336,-157.74981
121227,Mariners Harbor,1452,NY,233,US,40.63677,-74.15875
121228,Marinette,1441,WI,233,US,45.09998,-87.63066
121229,Marinette County,1441,WI,233,US,45.3509,-88.00222
121230,Maringouin,1457,LA,233,US,30.4913,-91.51955
121231,Marion,1456,AL,233,US,32.63235,-87.31917
121232,Marion,1444,AR,233,US,35.21453,-90.19648
121233,Marion,1425,IL,233,US,37.73061,-88.93313
121234,Marion,1406,KS,233,US,38.34835,-97.01725
121235,Marion,1419,KY,233,US,37.33283,-88.08113
121236,Marion,1447,NC,233,US,35.68401,-82.00927
121237,Marion,1430,MS,233,US,32.41736,-88.64782
121238,Marion,1443,SC,233,US,34.17822,-79.40061
121239,Marion,1407,TX,233,US,29.57134,-98.14029
121240,Marion,1459,IA,233,US,42.03417,-91.59768
121241,Marion,1427,VA,233,US,36.83484,-81.51484
121242,Marion,1433,MA,233,US,41.7001,-70.76281
121243,Marion,1440,IN,233,US,40.55837,-85.65914
121244,Marion,1452,NY,233,US,43.1434,-77.18915
121245,Marion,1441,WI,233,US,44.67081,-88.88927
121246,Marion Center,1433,MA,233,US,41.70424,-70.76286
121247,Marion County,1456,AL,233,US,34.13655,-87.88714
121248,Marion County,1444,AR,233,US,36.26835,-92.68422
121249,Marion County,1436,FL,233,US,29.2102,-82.05668
121250,Marion County,1455,GA,233,US,32.35338,-84.52464
121251,Marion County,1425,IL,233,US,38.64959,-88.91897
121252,Marion County,1440,IN,233,US,39.78171,-86.13847
121253,Marion County,1406,KS,233,US,38.35887,-97.09689
121254,Marion County,1419,KY,233,US,37.55253,-85.26963
121255,Marion County,1451,MO,233,US,39.80596,-91.62235
121256,Marion County,1430,MS,233,US,31.23082,-89.82244
121257,Marion County,1443,SC,233,US,34.08006,-79.36251
121258,Marion County,1454,TN,233,US,35.12935,-85.62203
121259,Marion County,1407,TX,233,US,32.79798,-94.35722
121260,Marion County,1429,WV,233,US,39.51,-80.2434
121261,Marion County,1459,IA,233,US,41.33445,-93.09944
121262,Marion County,1415,OR,233,US,44.90319,-122.58473
121263,Marionville,1451,MO,233,US,37.00311,-93.63742
121264,Mariposa,1416,CA,233,US,37.48494,-119.96628
121265,Mariposa County,1416,CA,233,US,37.58152,-119.90552
121266,Marissa,1425,IL,233,US,38.25005,-89.7501
121267,Marked Tree,1444,AR,233,US,35.53286,-90.42066
121268,Markesan,1441,WI,233,US,43.7072,-88.99011
121269,Markham,1407,TX,233,US,28.96026,-96.06524
121270,Markham,1425,IL,233,US,41.59365,-87.69477
121271,Markle,1440,IN,233,US,40.82462,-85.33884
121272,Marks,1430,MS,233,US,34.25683,-90.27298
121273,Marksville,1457,LA,233,US,31.12797,-92.06624
121274,Marlboro,1417,NJ,233,US,40.31539,-74.24626
121275,Marlboro,1452,NY,233,US,41.60565,-73.97153
121276,Marlboro County,1443,SC,233,US,34.60199,-79.67863
121277,Marlboro Meadows,1401,MD,233,US,38.83622,-76.71497
121278,Marlboro Village,1401,MD,233,US,38.83054,-76.76965
121279,Marlborough,1451,MO,233,US,38.57033,-90.33706
121280,Marlborough,1433,MA,233,US,42.34593,-71.55229
121281,Marlborough,1404,NH,233,US,42.90425,-72.20786
121282,Marlette,1426,MI,233,US,43.32697,-83.08022
121283,Marlin,1407,TX,233,US,31.30629,-96.89804
121284,Marlinton,1429,WV,233,US,38.22345,-80.09451
121285,Marlow,1421,OK,233,US,34.64813,-97.95809
121286,Marlow Heights,1401,MD,233,US,38.83345,-76.95164
121287,Marlton,1401,MD,233,US,38.77373,-76.78997
121288,Marlton,1417,NJ,233,US,39.89122,-74.92183
121289,Marmaduke,1444,AR,233,US,36.18701,-90.38316
121290,Marmet,1429,WV,233,US,38.24538,-81.56706
121291,Maroa,1425,IL,233,US,40.03643,-88.95703
121292,Marquette,1426,MI,233,US,46.54354,-87.39542
121293,Marquette County,1426,MI,233,US,46.66295,-87.5735
121294,Marquette County,1441,WI,233,US,43.81958,-89.39875
121295,Marquette Heights,1425,IL,233,US,40.61754,-89.60038
121296,Marrero,1457,LA,233,US,29.89937,-90.10035
121297,Marriott-Slaterville,1414,UT,233,US,41.25161,-112.0255
121298,Mars,1422,PA,233,US,40.6959,-80.01173
121299,Mars Hill,1447,NC,233,US,35.8265,-82.5493
121300,Marseilles,1425,IL,233,US,41.33087,-88.70813
121301,Marshall,1444,AR,233,US,35.90896,-92.63127
121302,Marshall,1425,IL,233,US,39.39143,-87.69364
121303,Marshall,1451,MO,233,US,39.12308,-93.19687
121304,Marshall,1447,NC,233,US,35.79733,-82.68403
121305,Marshall,1407,TX,233,US,32.54487,-94.36742
121306,Marshall,1427,VA,233,US,38.86484,-77.85777
121307,Marshall,1426,MI,233,US,42.27226,-84.96331
121308,Marshall,1420,MN,233,US,44.4469,-95.78835
121309,Marshall,1441,WI,233,US,43.16833,-89.06678
121310,Marshall County,1456,AL,233,US,34.36696,-86.30664
121311,Marshall County,1406,KS,233,US,39.78362,-96.52294
121312,Marshall County,1419,KY,233,US,36.88345,-88.32938
121313,Marshall County,1430,MS,233,US,34.76225,-89.50305
121314,Marshall County,1421,OK,233,US,34.02449,-96.76913
121315,Marshall County,1454,TN,233,US,35.46886,-86.76502
121316,Marshall County,1429,WV,233,US,39.86061,-80.66339
121317,Marshall County,1459,IA,233,US,42.03585,-92.99877
121318,Marshall County,1425,IL,233,US,41.03317,-89.34478
121319,Marshall County,1440,IN,233,US,41.32485,-86.26176
121320,Marshall County,1420,MN,233,US,48.35813,-96.36847
121321,Marshall County,1445,SD,233,US,45.75867,-97.5985
121322,Marshallton,1422,PA,233,US,40.78675,-76.5394
121323,Marshalltown,1459,IA,233,US,42.04943,-92.90798
121324,Marshallville,1455,GA,233,US,32.45626,-83.94019
121325,Marshfield,1451,MO,233,US,37.33866,-92.90712
121326,Marshfield,1433,MA,233,US,42.09177,-70.70559
121327,Marshfield,1441,WI,233,US,44.66885,-90.1718
121328,Marshfield Hills,1433,MA,233,US,42.14594,-70.73976
121329,Marshville,1447,NC,233,US,34.98849,-80.36701
121330,Marsing,1460,ID,233,US,43.54544,-116.8132
121331,Marstons Mills,1433,MA,233,US,41.65622,-70.41614
121332,Mart,1407,TX,233,US,31.54239,-96.8336
121333,Martha Lake,1462,WA,233,US,47.85093,-122.2393
121334,Marthasville,1451,MO,233,US,38.62838,-91.05764
121335,Martin,1454,TN,233,US,36.3434,-88.85034
121336,Martin,1445,SD,233,US,43.1725,-101.73265
121337,Martin County,1436,FL,233,US,27.08157,-80.39851
121338,Martin County,1440,IN,233,US,38.70801,-86.80307
121339,Martin County,1419,KY,233,US,37.80158,-82.51329
121340,Martin County,1447,NC,233,US,35.8416,-77.10708
121341,Martin County,1420,MN,233,US,43.67436,-94.55107
121342,Martin County,1407,TX,233,US,32.30603,-101.95122
121343,Martindale,1407,TX,233,US,29.8455,-97.84084
121344,Martinez,1455,GA,233,US,33.51736,-82.07567
121345,Martinez,1416,CA,233,US,38.01937,-122.13413
121346,Martinsburg,1429,WV,233,US,39.45621,-77.96389
121347,Martinsburg,1422,PA,233,US,40.31119,-78.32418
121348,Martinsville,1440,IN,233,US,39.42783,-86.42833
121349,Martinsville,1425,IL,233,US,39.33559,-87.88198
121350,Martinsville,1427,VA,233,US,36.69153,-79.87254
121351,Martinsville,1417,NJ,233,US,40.60121,-74.55905
121352,Marvell,1444,AR,233,US,34.55566,-90.91289
121353,Marvin,1447,NC,233,US,34.99182,-80.81479
121354,Mary Esther,1436,FL,233,US,30.41015,-86.66509
121355,Maryland City,1401,MD,233,US,39.09205,-76.81775
121356,Maryland Heights,1451,MO,233,US,38.71311,-90.42984
121357,Marysville,1406,KS,233,US,39.84111,-96.64724
121358,Marysville,1426,MI,233,US,42.91253,-82.48686
121359,Marysville,1422,PA,233,US,40.34259,-76.92997
121360,Marysville,1416,CA,233,US,39.14573,-121.59135
121361,Marysville,1462,WA,233,US,48.05176,-122.17708
121362,Maryvale,1434,AZ,233,US,33.50199,-112.17765
121363,Maryville,1425,IL,233,US,38.72366,-89.95593
121364,Maryville,1454,TN,233,US,35.75647,-83.97046
121365,Maryville,1451,MO,233,US,40.3461,-94.87247
121366,Masaryktown,1436,FL,233,US,28.44167,-82.45704
121367,Mascot,1454,TN,233,US,36.0612,-83.74573
121368,Mascotte,1436,FL,233,US,28.57833,-81.88675
121369,Mascoutah,1425,IL,233,US,38.49033,-89.79315
121370,Mashpee,1433,MA,233,US,41.64844,-70.48114
121371,Mason,1454,TN,233,US,35.41175,-89.53285
121372,Mason,1407,TX,233,US,30.74879,-99.23061
121373,Mason,1426,MI,233,US,42.5792,-84.44358
121374,Mason,1404,NH,233,US,42.7437,-71.76896
121375,Mason City,1459,IA,233,US,43.15357,-93.20104
121376,Mason City,1425,IL,233,US,40.20227,-89.69816
121377,Mason County,1419,KY,233,US,38.59517,-83.82425
121378,Mason County,1407,TX,233,US,30.71772,-99.22613
121379,Mason County,1429,WV,233,US,38.76974,-82.02654
121380,Mason County,1425,IL,233,US,40.23965,-89.91678
121381,Mason County,1426,MI,233,US,43.95625,-86.42258
121382,Mason County,1462,WA,233,US,47.35048,-123.18309
121383,Masonboro,1447,NC,233,US,34.17934,-77.84748
121384,Masontown,1422,PA,233,US,39.84674,-79.89978
121385,Masonville,1419,KY,233,US,37.67505,-87.03472
121386,Maspeth,1452,NY,233,US,40.72316,-73.91264
121387,Massac,1419,KY,233,US,37.01672,-88.73061
121388,Massac County,1425,IL,233,US,37.21903,-88.70774
121389,Massanetta Springs,1427,VA,233,US,38.4004,-78.83419
121390,Massanutten,1427,VA,233,US,38.40957,-78.7378
121391,Massapequa,1452,NY,233,US,40.68066,-73.47429
121392,Massapequa Park,1452,NY,233,US,40.68038,-73.45512
121393,Massena,1452,NY,233,US,44.9281,-74.89186
121394,Mastic,1452,NY,233,US,40.80204,-72.84094
121395,Mastic Beach,1452,NY,233,US,40.76677,-72.85205
121396,Matador,1407,TX,233,US,34.01202,-100.82208
121397,Matagorda County,1407,TX,233,US,28.78565,-96.00398
121398,Matamoras,1422,PA,233,US,41.3687,-74.70016
121399,Matanuska-Susitna Borough,1400,AK,233,US,62.50056,-150.00556
121400,Matawan,1417,NJ,233,US,40.41483,-74.22959
121401,Matheny,1416,CA,233,US,36.17066,-119.35158
121402,Mathews,1457,LA,233,US,29.68632,-90.54675
121403,Mathews,1427,VA,233,US,37.43708,-76.31994
121404,Mathews County,1427,VA,233,US,37.41731,-76.27129
121405,Mathis,1407,TX,233,US,28.09446,-97.82805
121406,Matoaca,1427,VA,233,US,37.23043,-77.47749
121407,Mattapoisett,1433,MA,233,US,41.65844,-70.81615
121408,Mattapoisett Center,1433,MA,233,US,41.66595,-70.8072
121409,Mattawa,1462,WA,233,US,46.73791,-119.90282
121410,Mattawan,1426,MI,233,US,42.20948,-85.78445
121411,Matteson,1425,IL,233,US,41.50392,-87.7131
121412,Matthews,1447,NC,233,US,35.11681,-80.72368
121413,Mattituck,1452,NY,233,US,40.99121,-72.53425
121414,Mattoon,1425,IL,233,US,39.48309,-88.37283
121415,Mattydale,1452,NY,233,US,43.09784,-76.1452
121416,Maud,1421,OK,233,US,35.13036,-96.77585
121417,Maud,1407,TX,233,US,33.3329,-94.3427
121418,Maugansville,1401,MD,233,US,39.69287,-77.74472
121419,Maui County,1411,HI,233,US,20.86774,-156.61706
121420,Mauldin,1443,SC,233,US,34.77873,-82.31012
121421,Maumelle,1444,AR,233,US,34.86676,-92.40432
121422,Maunawili,1411,HI,233,US,21.37278,-157.77056
121423,Maurice,1457,LA,233,US,30.10854,-92.12457
121424,Mauriceville,1407,TX,233,US,30.20354,-93.86628
121425,Maury,1447,NC,233,US,35.48211,-77.58608
121426,Maury County,1454,TN,233,US,35.61694,-87.07701
121427,Mauston,1441,WI,233,US,43.79719,-90.07735
121428,Maverick County,1407,TX,233,US,28.74259,-100.31451
121429,Maxton,1447,NC,233,US,34.73516,-79.34893
121430,Maxwell,1416,CA,233,US,39.27628,-122.19137
121431,Maybrook,1452,NY,233,US,41.48398,-74.21765
121432,Mayer,1420,MN,233,US,44.88496,-93.88775
121433,Mayer,1434,AZ,233,US,34.39781,-112.23627
121434,Mayersville,1430,MS,233,US,32.90207,-91.05122
121435,Mayes County,1421,OK,233,US,36.30188,-95.23085
121436,Mayfield,1419,KY,233,US,36.74172,-88.63672
121437,Mayfield,1422,PA,233,US,41.53814,-75.53602
121438,Mayflower,1444,AR,233,US,34.95703,-92.42738
121439,Mayflower Village,1416,CA,233,US,34.11501,-118.00979
121440,Maynard,1433,MA,233,US,42.43343,-71.44951
121441,Maynardville,1454,TN,233,US,36.25064,-83.79741
121442,Mayo,1436,FL,233,US,30.053,-83.17486
121443,Mayo,1401,MD,233,US,38.88761,-76.5119
121444,Mayo,1443,SC,233,US,35.08401,-81.85983
121445,Mayodan,1447,NC,233,US,36.41236,-79.96699
121446,Mays Chapel,1401,MD,233,US,39.43316,-76.64941
121447,Mays Landing,1417,NJ,233,US,39.45234,-74.72766
121448,Maysville,1455,GA,233,US,34.25288,-83.56155
121449,Maysville,1451,MO,233,US,39.88917,-94.3619
121450,Maysville,1419,KY,233,US,38.64119,-83.74437
121451,Maysville,1447,NC,233,US,34.90488,-77.23134
121452,Maysville,1421,OK,233,US,34.8173,-97.40586
121453,Maytown,1422,PA,233,US,40.07537,-76.58219
121454,Mayville,1418,ND,233,US,47.49804,-97.32454
121455,Mayville,1452,NY,233,US,42.25395,-79.50449
121456,Mayville,1441,WI,233,US,43.49416,-88.54482
121457,Maywood,1425,IL,233,US,41.8792,-87.84312
121458,Maywood,1417,NJ,233,US,40.9026,-74.06181
121459,Maywood,1416,CA,233,US,33.98668,-118.18535
121460,Mazomanie,1441,WI,233,US,43.17666,-89.79485
121461,McAdoo,1422,PA,233,US,40.90127,-75.99106
121462,McAlester,1421,OK,233,US,34.93343,-95.76971
121463,McAllen,1407,TX,233,US,26.20341,-98.23001
121464,McAlmont,1444,AR,233,US,34.80842,-92.18181
121465,McCall,1460,ID,233,US,44.91101,-116.09874
121466,McCamey,1407,TX,233,US,31.13598,-102.2243
121467,McCaysville,1455,GA,233,US,34.98619,-84.37131
121468,McChord Air Force Base,1462,WA,233,US,47.13397,-122.49157
121469,McClain County,1421,OK,233,US,35.00934,-97.4443
121470,McCleary,1462,WA,233,US,47.05315,-123.26543
121471,McCloud,1416,CA,233,US,41.25571,-122.13945
121472,McClusky,1418,ND,233,US,47.48583,-100.44318
121473,McColl,1443,SC,233,US,34.66877,-79.54533
121474,McComb,1430,MS,233,US,31.24379,-90.45315
121475,McCone County,1446,MT,233,US,47.64523,-105.79534
121476,McConnell AFB,1406,KS,233,US,37.63007,-97.25869
121477,McConnellsburg,1422,PA,233,US,39.93259,-77.99889
121478,McConnellstown,1422,PA,233,US,40.45257,-78.08167
121479,McCook,1408,NE,233,US,40.20195,-100.62571
121480,McCook County,1445,SD,233,US,43.67431,-97.36844
121481,McCord,1421,OK,233,US,36.67847,-97.04
121482,McCordsville,1440,IN,233,US,39.9081,-85.92276
121483,McCormick,1443,SC,233,US,33.91346,-82.29346
121484,McCormick County,1443,SC,233,US,33.89955,-82.30988
121485,McCracken County,1419,KY,233,US,37.05408,-88.71272
121486,McCreary County,1419,KY,233,US,36.73714,-84.48417
121487,McCrory,1444,AR,233,US,35.2562,-91.20012
121488,McCulloch County,1407,TX,233,US,31.19887,-99.34748
121489,McCullom Lake,1425,IL,233,US,42.36835,-88.29259
121490,McCurtain County,1421,OK,233,US,34.11529,-94.77133
121491,McDonald,1422,PA,233,US,40.3709,-80.23478
121492,McDonald County,1451,MO,233,US,36.62867,-94.34836
121493,McDonough,1455,GA,233,US,33.44734,-84.14686
121494,McDonough County,1425,IL,233,US,40.45621,-90.67791
121495,McDowell County,1447,NC,233,US,35.68124,-82.0487
121496,McDowell County,1429,WV,233,US,37.3785,-81.65358
121497,McDuffie County,1455,GA,233,US,33.48285,-82.48137
121498,McEwen,1454,TN,233,US,36.10784,-87.63307
121499,McFarland,1441,WI,233,US,43.0125,-89.28984
121500,McFarland,1416,CA,233,US,35.67801,-119.22927
121501,McGehee,1444,AR,233,US,33.629,-91.39956
121502,McGill,1458,NV,233,US,39.40494,-114.77863
121503,McGovern,1422,PA,233,US,40.22896,-80.21645
121504,McGraw,1452,NY,233,US,42.59618,-76.09326
121505,McGregor,1436,FL,233,US,26.56091,-81.91453
121506,McGregor,1407,TX,233,US,31.44406,-97.40918
121507,McGuire AFB,1417,NJ,233,US,40.03977,-74.58174
121508,McHenry,1425,IL,233,US,42.33335,-88.26675
121509,McHenry County,1425,IL,233,US,42.32439,-88.45245
121510,McHenry County,1418,ND,233,US,48.23458,-100.63628
121511,McIntosh,1423,NM,233,US,34.86478,-106.05169
121512,McIntosh,1445,SD,233,US,45.92139,-101.34958
121513,McIntosh County,1455,GA,233,US,31.48381,-81.37557
121514,McIntosh County,1421,OK,233,US,35.37366,-95.66684
121515,McIntosh County,1418,ND,233,US,46.11179,-99.4412
121516,McKean County,1422,PA,233,US,41.80775,-78.56903
121517,McKee,1419,KY,233,US,37.43036,-83.99798
121518,McKees Rocks,1422,PA,233,US,40.46562,-80.06561
121519,McKeesport,1422,PA,233,US,40.34785,-79.86422
121520,McKenzie,1454,TN,233,US,36.13256,-88.51866
121521,McKenzie County,1418,ND,233,US,47.74015,-103.39527
121522,McKinley County,1423,NM,233,US,35.58061,-108.26193
121523,McKinley Park,1425,IL,233,US,41.8317,-87.67366
121524,McKinleyville,1416,CA,233,US,40.94652,-124.10062
121525,McKinney,1407,TX,233,US,33.19762,-96.61527
121526,McKownville,1452,NY,233,US,42.68397,-73.84762
121527,McLean,1427,VA,233,US,38.93428,-77.17748
121528,McLean County,1419,KY,233,US,37.52919,-87.26361
121529,McLean County,1425,IL,233,US,40.49089,-88.84732
121530,McLean County,1418,ND,233,US,47.60696,-101.32183
121531,McLeansboro,1425,IL,233,US,38.09338,-88.53561
121532,McLeansville,1447,NC,233,US,36.10736,-79.65864
121533,McLendon-Chisholm,1407,TX,233,US,32.84235,-96.38054
121534,McLennan County,1407,TX,233,US,31.55238,-97.20179
121535,McLeod County,1420,MN,233,US,44.82354,-94.27242
121536,McLoud,1421,OK,233,US,35.4359,-97.09142
121537,McMechen,1429,WV,233,US,39.98813,-80.73147
121538,McMillin,1462,WA,233,US,47.13982,-122.23651
121539,McMinn County,1454,TN,233,US,35.42475,-84.61747
121540,McMinnville,1454,TN,233,US,35.6834,-85.76998
121541,McMinnville,1415,OR,233,US,45.21012,-123.19872
121542,McMullen County,1407,TX,233,US,28.35269,-98.56784
121543,McMurray,1422,PA,233,US,40.27785,-80.08394
121544,McNairy County,1454,TN,233,US,35.17545,-88.56364
121545,McPherson,1406,KS,233,US,38.37084,-97.66421
121546,McPherson County,1406,KS,233,US,38.39167,-97.64808
121547,McPherson County,1445,SD,233,US,45.76637,-99.22146
121548,McPherson County,1408,NE,233,US,41.56808,-101.06053
121549,McQueeney,1407,TX,233,US,29.59217,-98.03334
121550,McRae,1455,GA,233,US,32.06795,-82.9007
121551,McSherrystown,1422,PA,233,US,39.80732,-77.01137
121552,Mead,1450,CO,233,US,40.23332,-104.99859
121553,Mead,1462,WA,233,US,47.76739,-117.35494
121554,Mead Valley,1416,CA,233,US,33.83335,-117.29615
121555,Meade,1406,KS,233,US,37.28558,-100.34015
121556,Meade County,1419,KY,233,US,37.96984,-86.21718
121557,Meade County,1406,KS,233,US,37.2382,-100.36618
121558,Meade County,1445,SD,233,US,44.56684,-102.71687
121559,Meadow Glade,1462,WA,233,US,45.75845,-122.56038
121560,Meadow Lake,1423,NM,233,US,34.80144,-106.54363
121561,Meadow Lakes,1400,AK,233,US,61.62472,-149.60111
121562,Meadow Oaks,1436,FL,233,US,28.34619,-82.60284
121563,Meadow Vista,1416,CA,233,US,39.00101,-121.02189
121564,Meadow Woods,1436,FL,233,US,28.38556,-81.36646
121565,Meadowbrook,1456,AL,233,US,33.40205,-86.69665
121566,Meadowbrook,1427,VA,233,US,37.44882,-77.47353
121567,Meadowbrook,1416,CA,233,US,33.72578,-117.28509
121568,Meadowdale,1462,WA,233,US,47.85287,-122.33347
121569,Meadowlakes,1407,TX,233,US,30.56245,-98.29867
121570,Meadowood,1422,PA,233,US,40.84201,-79.89394
121571,Meadows Place,1407,TX,233,US,29.65134,-95.588
121572,Meads,1419,KY,233,US,38.41258,-82.70905
121573,Meadview,1434,AZ,233,US,36.00221,-114.06829
121574,Meadville,1430,MS,233,US,31.47239,-90.89677
121575,Meadville,1422,PA,233,US,41.64144,-80.15145
121576,Meagher County,1446,MT,233,US,46.59819,-110.88564
121577,Mebane,1447,NC,233,US,36.09597,-79.26696
121578,Mecca,1416,CA,233,US,33.57219,-116.0782
121579,Mechanic Falls,1453,ME,233,US,44.11174,-70.39172
121580,Mechanicsburg,1422,PA,233,US,40.21426,-77.00859
121581,Mechanicstown,1452,NY,233,US,41.44287,-74.38849
121582,Mechanicsville,1401,MD,233,US,38.4429,-76.74385
121583,Mechanicsville,1427,VA,233,US,37.60876,-77.37331
121584,Mechanicsville,1459,IA,233,US,41.90446,-91.25461
121585,Mechanicsville,1422,PA,233,US,40.96648,-76.58662
121586,Mechanicville,1452,NY,233,US,42.90285,-73.68734
121587,Mecklenburg County,1447,NC,233,US,35.24671,-80.83276
121588,Mecklenburg County,1427,VA,233,US,36.68036,-78.36273
121589,Mecosta County,1426,MI,233,US,43.6408,-85.32462
121590,Medfield,1433,MA,233,US,42.1876,-71.30645
121591,Medford,1421,OK,233,US,36.80697,-97.73366
121592,Medford,1433,MA,233,US,42.41843,-71.10616
121593,Medford,1420,MN,233,US,44.17413,-93.24632
121594,Medford,1452,NY,233,US,40.8176,-73.00011
121595,Medford,1441,WI,233,US,45.13858,-90.34014
121596,Medford,1415,OR,233,US,42.32652,-122.87559
121597,Medford Lakes,1417,NJ,233,US,39.85845,-74.80294
121598,Media,1422,PA,233,US,39.91678,-75.38769
121599,Mediapolis,1459,IA,233,US,41.00809,-91.16404
121600,Medical Lake,1462,WA,233,US,47.57294,-117.68216
121601,Medicine Lodge,1406,KS,233,US,37.28113,-98.58036
121602,Medina,1454,TN,233,US,35.80285,-88.77478
121603,Medina,1407,TX,233,US,29.79661,-99.24643
121604,Medina,1420,MN,233,US,45.03524,-93.58246
121605,Medina,1452,NY,233,US,43.22006,-78.38697
121606,Medina,1462,WA,233,US,47.62093,-122.22762
121607,Medina County,1407,TX,233,US,29.3557,-99.11013
121608,Medora,1418,ND,233,US,46.9139,-103.52435
121609,Medulla,1436,FL,233,US,27.9678,-81.97342
121610,Medway,1433,MA,233,US,42.14176,-71.39673
121611,Medway,1453,ME,233,US,45.60894,-68.53086
121612,Meeker,1421,OK,233,US,35.5034,-96.9028
121613,Meeker,1450,CO,233,US,40.03747,-107.91313
121614,Meeker County,1420,MN,233,US,45.12312,-94.52731
121615,Meggett,1443,SC,233,US,32.71796,-80.23899
121616,Mehlville,1451,MO,233,US,38.50839,-90.32289
121617,Meigs,1455,GA,233,US,31.07241,-84.08907
121618,Meigs County,1454,TN,233,US,35.51283,-84.81339
121619,Meiners Oaks,1416,CA,233,US,34.44694,-119.27928
121620,Melbourne,1436,FL,233,US,28.08363,-80.60811
121621,Melbourne,1444,AR,233,US,36.05951,-91.90848
121622,Melbourne Beach,1436,FL,233,US,28.06835,-80.56033
121623,Melcher-Dallas,1459,IA,233,US,41.225,-93.24132
121624,Melissa,1407,TX,233,US,33.28595,-96.57277
121625,Mellette County,1445,SD,233,US,43.58127,-100.75999
121626,Mellwood,1401,MD,233,US,38.81039,-76.82414
121627,Melody Hill,1440,IN,233,US,38.02615,-87.51585
121628,Melrose,1433,MA,233,US,42.45843,-71.06616
121629,Melrose,1420,MN,233,US,45.67469,-94.80752
121630,Melrose,1452,NY,233,US,40.82455,-73.91041
121631,Melrose Park,1436,FL,233,US,26.11342,-80.19338
121632,Melrose Park,1425,IL,233,US,41.90059,-87.85673
121633,Melrose Park,1452,NY,233,US,42.90868,-76.54022
121634,Melville,1457,LA,233,US,30.69297,-91.744
121635,Melville,1452,NY,233,US,40.79343,-73.41512
121636,Melville,1461,RI,233,US,41.58705,-71.28338
121637,Melvindale,1426,MI,233,US,42.28254,-83.1752
121638,Memphis,1436,FL,233,US,27.53587,-82.56121
121639,Memphis,1454,TN,233,US,35.14953,-90.04898
121640,Memphis,1426,MI,233,US,42.89642,-82.76881
121641,Memphis,1451,MO,233,US,40.45781,-92.17129
121642,Memphis,1407,TX,233,US,34.72478,-100.53401
121643,Mena,1444,AR,233,US,34.58622,-94.23966
121644,Menahga,1420,MN,233,US,46.75385,-95.09808
121645,Menands,1452,NY,233,US,42.69202,-73.72456
121646,Menard,1407,TX,233,US,30.91767,-99.78646
121647,Menard County,1407,TX,233,US,30.88978,-99.82064
121648,Menard County,1425,IL,233,US,40.0274,-89.80217
121649,Menasha,1441,WI,233,US,44.20221,-88.4465
121650,Mendenhall,1430,MS,233,US,31.96182,-89.87008
121651,Mendham,1417,NJ,233,US,40.77593,-74.60071
121652,Mendocino County,1416,CA,233,US,39.43362,-123.43155
121653,Mendon,1433,MA,233,US,42.10565,-71.55229
121654,Mendon,1409,VT,233,US,43.65198,-72.9278
121655,Mendon,1414,UT,233,US,41.70993,-111.97773
121656,Mendota,1425,IL,233,US,41.54725,-89.11759
121657,Mendota,1416,CA,233,US,36.75356,-120.38156
121658,Mendota Heights,1420,MN,233,US,44.88358,-93.13827
121659,Menifee,1416,CA,233,US,33.72835,-117.14642
121660,Menifee County,1419,KY,233,US,37.94138,-83.59887
121661,Menlo Park,1416,CA,233,US,37.45383,-122.18219
121662,Menominee,1426,MI,233,US,45.10776,-87.61427
121663,Menominee County,1426,MI,233,US,45.52514,-87.50969
121664,Menominee County,1441,WI,233,US,45.00437,-88.71001
121665,Menomonee Falls,1441,WI,233,US,43.1789,-88.11731
121666,Menomonie,1441,WI,233,US,44.87552,-91.91934
121667,Mentone,1416,CA,233,US,34.07001,-117.13448
121668,Mentone,1407,TX,233,US,31.70513,-103.59935
121669,Mequon,1441,WI,233,US,43.21555,-88.03001
121670,Meraux,1457,LA,233,US,29.93017,-89.91623
121671,Merced,1416,CA,233,US,37.30216,-120.48297
121672,Merced County,1416,CA,233,US,37.19186,-120.71767
121673,Mercedes,1407,TX,233,US,26.1498,-97.91361
121674,Mercer,1422,PA,233,US,41.227,-80.23979
121675,Mercer County,1419,KY,233,US,37.81103,-84.87444
121676,Mercer County,1429,WV,233,US,37.40552,-81.11144
121677,Mercer County,1425,IL,233,US,41.20534,-90.74141
121678,Mercer County,1451,MO,233,US,40.42233,-93.56856
121679,Mercer County,1417,NJ,233,US,40.2834,-74.70169
121680,Mercer County,1422,PA,233,US,41.30218,-80.2577
121681,Mercer County,1418,ND,233,US,47.30922,-101.83153
121682,Mercer Island,1462,WA,233,US,47.57065,-122.22207
121683,Mercersburg,1422,PA,233,US,39.82787,-77.90333
121684,Mercerville,1417,NJ,233,US,40.23705,-74.68655
121685,Mercerville-Hamilton Square,1417,NJ,233,US,40.23126,-74.67223
121686,Merchantville,1417,NJ,233,US,39.94734,-75.06656
121687,Meredith,1404,NH,233,US,43.65757,-71.50035
121688,Meredosia,1425,IL,233,US,39.83116,-90.55957
121689,Meriden,1435,CT,233,US,41.53815,-72.80704
121690,Meridian,1430,MS,233,US,32.36431,-88.70366
121691,Meridian,1421,OK,233,US,34.42731,-97.97809
121692,Meridian,1407,TX,233,US,31.92321,-97.65669
121693,Meridian,1422,PA,233,US,40.8484,-79.962
121694,Meridian,1450,CO,233,US,39.53957,-104.84528
121695,Meridian,1460,ID,233,US,43.61211,-116.39151
121696,Meridian Hills,1440,IN,233,US,39.89004,-86.15721
121697,Meridian Station,1430,MS,233,US,32.55049,-88.61849
121698,Meridianville,1456,AL,233,US,34.85148,-86.57222
121699,Meriwether County,1455,GA,233,US,33.04066,-84.68831
121700,Merkel,1407,TX,233,US,32.47068,-100.01287
121701,Merlin,1415,OR,233,US,42.51734,-123.41979
121702,Merriam,1406,KS,233,US,39.02362,-94.69357
121703,Merriam Woods,1451,MO,233,US,36.71395,-93.16185
121704,Merrick,1452,NY,233,US,40.66288,-73.55152
121705,Merrick County,1408,NE,233,US,41.16982,-98.03765
121706,Merrifield,1427,VA,233,US,38.87428,-77.22693
121707,Merrill,1441,WI,233,US,45.18052,-89.68346
121708,Merrillville,1440,IN,233,US,41.48281,-87.33281
121709,Merrimac,1427,VA,233,US,37.18957,-80.42561
121710,Merrimac,1433,MA,233,US,42.83065,-71.00228
121711,Merrimack,1404,NH,233,US,42.86509,-71.4934
121712,Merrimack County,1404,NH,233,US,43.29765,-71.68019
121713,Merrionette Park,1425,IL,233,US,41.6842,-87.70033
121714,Merritt Island,1436,FL,233,US,28.53917,-80.672
121715,Merritt Park,1452,NY,233,US,41.53848,-73.87238
121716,Merrydale,1457,LA,233,US,30.5013,-91.10844
121717,Merryville,1457,LA,233,US,30.75437,-93.54045
121718,Merton,1441,WI,233,US,43.14667,-88.30676
121719,Mertzon,1407,TX,233,US,31.26183,-100.81733
121720,Mesa,1434,AZ,233,US,33.42227,-111.82264
121721,Mesa County,1450,CO,233,US,39.01828,-108.46645
121722,Mesa Verde,1416,CA,233,US,33.60586,-114.73107
121723,Mescal,1434,AZ,233,US,31.99008,-110.43535
121724,Mescalero,1423,NM,233,US,33.15759,-105.77415
121725,Mesilla,1423,NM,233,US,32.27009,-106.80084
121726,Mesquite,1407,TX,233,US,32.7668,-96.59916
121727,Mesquite,1458,NV,233,US,36.80553,-114.06719
121728,Mesquite,1423,NM,233,US,32.16454,-106.69666
121729,Metairie,1457,LA,233,US,29.98409,-90.15285
121730,Metairie Terrace,1457,LA,233,US,29.97854,-90.16396
121731,Metamora,1425,IL,233,US,40.79059,-89.36064
121732,Metcalfe,1430,MS,233,US,33.454,-91.00733
121733,Metcalfe County,1419,KY,233,US,36.99054,-85.62925
121734,Methuen,1433,MA,233,US,42.7262,-71.19089
121735,Metlakatla,1400,AK,233,US,55.12848,-131.57519
121736,Metropolis,1425,IL,233,US,37.15117,-88.732
121737,Metter,1455,GA,233,US,32.39712,-82.06012
121738,Metuchen,1417,NJ,233,US,40.54316,-74.3632
121739,Metzger,1415,OR,233,US,45.44651,-122.75899
121740,Mexia,1407,TX,233,US,31.67989,-96.4822
121741,Mexico,1451,MO,233,US,39.16976,-91.88295
121742,Mexico,1453,ME,233,US,44.5609,-70.54534
121743,Mexico,1452,NY,233,US,43.45951,-76.22882
121744,Mexico Beach,1436,FL,233,US,29.94809,-85.41995
121745,Meyersdale,1422,PA,233,US,39.81369,-79.02475
121746,Miami,1436,FL,233,US,25.77427,-80.19366
121747,Miami,1421,OK,233,US,36.87451,-94.87746
121748,Miami,1434,AZ,233,US,33.39922,-110.86872
121749,Miami,1407,TX,233,US,35.69143,-100.63819
121750,Miami Beach,1436,FL,233,US,25.79065,-80.13005
121751,Miami County,1406,KS,233,US,38.56358,-94.83806
121752,Miami County,1440,IN,233,US,40.7695,-86.04502
121753,Miami Gardens,1436,FL,233,US,25.94204,-80.2456
121754,Miami Lakes,1436,FL,233,US,25.90871,-80.30866
121755,Miami Shores,1436,FL,233,US,25.86315,-80.19283
121756,Miami Springs,1436,FL,233,US,25.82232,-80.2895
121757,Miami-Dade County,1436,FL,233,US,25.60897,-80.49867
121758,Micco,1436,FL,233,US,27.88058,-80.50033
121759,Michigan Center,1426,MI,233,US,42.23309,-84.32718
121760,Michigan City,1440,IN,233,US,41.70754,-86.89503
121761,Middle Island,1452,NY,233,US,40.88427,-72.93733
121762,Middle River,1401,MD,233,US,39.33427,-76.43941
121763,Middle Valley,1454,TN,233,US,35.1959,-85.18468
121764,Middle Village,1452,NY,233,US,40.71649,-73.88125
121765,Middleborough,1433,MA,233,US,41.89316,-70.91115
121766,Middleborough Center,1433,MA,233,US,41.8946,-70.92618
121767,Middlebourne,1429,WV,233,US,39.4923,-80.90372
121768,Middleburg,1436,FL,233,US,30.06885,-81.86038
121769,Middleburg,1422,PA,233,US,40.78592,-77.0472
121770,Middleburgh,1452,NY,233,US,42.59869,-74.33292
121771,Middlebury,1435,CT,233,US,41.52787,-73.12761
121772,Middlebury,1440,IN,233,US,41.67533,-85.7061
121773,Middlebury (village),1409,VT,233,US,44.01553,-73.16937
121774,Middlebush,1417,NJ,233,US,40.4976,-74.52932
121775,Middleport,1452,NY,233,US,43.21256,-78.47641
121776,Middlesboro,1419,KY,233,US,36.60842,-83.71658
121777,Middlesex,1417,NJ,233,US,40.5726,-74.49265
121778,Middlesex County,1427,VA,233,US,37.59737,-76.57814
121779,Middlesex County,1435,CT,233,US,41.43538,-72.52312
121780,Middlesex County,1433,MA,233,US,42.48555,-71.39184
121781,Middlesex County,1417,NJ,233,US,40.44004,-74.40889
121782,Middleton,1433,MA,233,US,42.59509,-71.01616
121783,Middleton,1441,WI,233,US,43.09722,-89.50429
121784,Middleton,1460,ID,233,US,43.70683,-116.62014
121785,Middletown,1399,DE,233,US,39.44956,-75.71632
121786,Middletown,1401,MD,233,US,39.44371,-77.54471
121787,Middletown,1419,KY,233,US,38.24535,-85.53885
121788,Middletown,1435,CT,233,US,41.56232,-72.65065
121789,Middletown,1427,VA,233,US,39.02761,-78.28056
121790,Middletown,1440,IN,233,US,40.05727,-85.5372
121791,Middletown,1452,NY,233,US,41.44593,-74.42293
121792,Middletown,1422,PA,233,US,40.19981,-76.73108
121793,Middletown,1461,RI,233,US,41.54566,-71.29144
121794,Middletown,1416,CA,233,US,38.7524,-122.61499
121795,Middleville,1426,MI,233,US,42.71309,-85.46196
121796,Midfield,1456,AL,233,US,33.4615,-86.90888
121797,Midland,1447,NC,233,US,35.22737,-80.50062
121798,Midland,1426,MI,233,US,43.61558,-84.24721
121799,Midland,1422,PA,233,US,40.63257,-80.44645
121800,Midland,1407,TX,233,US,31.99735,-102.07791
121801,Midland,1462,WA,233,US,47.16704,-122.40484
121802,Midland Beach,1452,NY,233,US,40.57316,-74.09459
121803,Midland City,1456,AL,233,US,31.31906,-85.49382
121804,Midland County,1426,MI,233,US,43.64686,-84.38811
121805,Midland County,1407,TX,233,US,31.86917,-102.03162
121806,Midland Park,1417,NJ,233,US,40.98926,-74.1407
121807,Midlothian,1407,TX,233,US,32.48236,-96.99445
121808,Midlothian,1425,IL,233,US,41.62531,-87.71755
121809,Midpines,1416,CA,233,US,37.54438,-119.92045
121810,Midtown,1454,TN,233,US,35.87952,-84.5641
121811,Midvale,1414,UT,233,US,40.61106,-111.89994
121812,Midway,1444,AR,233,US,36.38534,-92.46183
121813,Midway,1455,GA,233,US,31.80577,-81.43066
121814,Midway,1419,KY,233,US,38.15091,-84.68383
121815,Midway,1457,LA,233,US,31.69212,-92.15236
121816,Midway,1447,NC,233,US,35.95347,-80.2181
121817,Midway,1454,TN,233,US,36.30011,-82.42375
121818,Midway,1422,PA,233,US,39.80843,-77.00276
121819,Midway,1414,UT,233,US,40.51218,-111.47435
121820,Midway,1436,FL,233,US,30.40648,-87.00553
121821,Midway City,1416,CA,233,US,33.74474,-117.98923
121822,Midway North,1407,TX,233,US,26.18776,-98.01708
121823,Midway South,1407,TX,233,US,26.15694,-98.02011
121824,Midwest City,1421,OK,233,US,35.44951,-97.3967
121825,Mifflin County,1422,PA,233,US,40.61041,-77.61704
121826,Mifflinburg,1422,PA,233,US,40.91758,-77.04775
121827,Mifflintown,1422,PA,233,US,40.5698,-77.39693
121828,Mifflinville,1422,PA,233,US,41.03231,-76.30799
121829,Mignon,1456,AL,233,US,33.18345,-86.26109
121830,Mikoma,1430,MS,233,US,33.95039,-90.28398
121831,Mila Doce,1407,TX,233,US,26.22618,-97.95889
121832,Milaca,1420,MN,233,US,45.7558,-93.65441
121833,Milam,1407,TX,233,US,31.4324,-93.84574
121834,Milam County,1407,TX,233,US,30.78634,-96.97685
121835,Milan,1440,IN,233,US,39.12117,-85.13135
121836,Milan,1454,TN,233,US,35.91979,-88.75895
121837,Milan,1425,IL,233,US,41.45309,-90.57208
121838,Milan,1426,MI,233,US,42.08532,-83.68244
121839,Milan,1451,MO,233,US,40.20224,-93.12521
121840,Milan,1404,NH,233,US,44.57339,-71.18508
121841,Milan,1423,NM,233,US,35.16976,-107.89089
121842,Milbank,1445,SD,233,US,45.21913,-96.63562
121843,Milbridge,1453,ME,233,US,44.53536,-67.88083
121844,Miles City,1446,MT,233,US,46.40834,-105.84056
121845,Milesburg,1422,PA,233,US,40.94173,-77.785
121846,Milford,1399,DE,233,US,38.91261,-75.42797
121847,Milford,1435,CT,233,US,41.22232,-73.0565
121848,Milford,1459,IA,233,US,43.32469,-95.15
121849,Milford,1440,IN,233,US,41.40977,-85.84555
121850,Milford,1433,MA,233,US,42.13982,-71.51617
121851,Milford,1425,IL,233,US,40.62837,-87.69614
121852,Milford,1426,MI,233,US,42.59364,-83.59939
121853,Milford,1453,ME,233,US,44.94618,-68.64392
121854,Milford,1417,NJ,233,US,40.56871,-75.09462
121855,Milford,1408,NE,233,US,40.77445,-97.05059
121856,Milford,1404,NH,233,US,42.83536,-71.64896
121857,Milford,1422,PA,233,US,41.32232,-74.80239
121858,Milford,1441,WI,233,US,43.10083,-88.84677
121859,Milford,1414,UT,233,US,38.39691,-113.01079
121860,Milford Mill,1401,MD,233,US,39.34788,-76.76997
121861,Mililani Town,1411,HI,233,US,21.45,-158.00111
121862,Mill City,1415,OR,233,US,44.75401,-122.47814
121863,Mill Creek,1462,WA,233,US,47.8601,-122.2043
121864,Mill Creek East,1462,WA,233,US,47.83602,-122.18766
121865,Mill Hall,1422,PA,233,US,41.10729,-77.48443
121866,Mill Neck,1452,NY,233,US,40.88704,-73.55512
121867,Mill Plain,1462,WA,233,US,45.6429,-122.49398
121868,Mill Valley,1416,CA,233,US,37.90604,-122.54498
121869,Millard County,1414,UT,233,US,39.07381,-113.10046
121870,Millbourne,1422,PA,233,US,39.96345,-75.25018
121871,Millbrae,1416,CA,233,US,37.59855,-122.38719
121872,Millbrook,1456,AL,233,US,32.47986,-86.36192
121873,Millbrook,1452,NY,233,US,41.78509,-73.69402
121874,Millbury,1433,MA,233,US,42.19398,-71.76007
121875,Millcreek,1414,UT,233,US,40.68689,-111.87549
121876,Mille Lacs County,1420,MN,233,US,45.93805,-93.63009
121877,Milledgeville,1455,GA,233,US,33.08014,-83.2321
121878,Millen,1455,GA,233,US,32.80405,-81.94928
121879,Miller,1445,SD,233,US,44.51831,-98.98843
121880,Miller County,1444,AR,233,US,33.31215,-93.89156
121881,Miller County,1455,GA,233,US,31.16399,-84.73072
121882,Miller County,1451,MO,233,US,38.21453,-92.42841
121883,Miller Place,1452,NY,233,US,40.95982,-72.99621
121884,Millers Creek,1447,NC,233,US,36.1893,-81.23759
121885,Millers Falls,1433,MA,233,US,42.58203,-72.49259
121886,Millersburg,1422,PA,233,US,40.53953,-76.96081
121887,Millersburg,1415,OR,233,US,44.68095,-123.06148
121888,Millersville,1454,TN,233,US,36.37116,-86.71
121889,Millersville,1422,PA,233,US,39.99788,-76.35413
121890,Milliken,1450,CO,233,US,40.32943,-104.85525
