id,name,country_code,state_code,latitude,longitude,country_id
1,"Southern Nations, Nationalities, and Peoples' Region",ET,SN,6.0304057,36.6058509,70
2,Somali Region,ET,SO,7.2629844,43.5360531,70
3,Amhara Region,ET,AM,11.5,38.5,70
4,Tigray Region,ET,TI,13.881273,39.127495,70
5,Oromia Region,ET,OR,7.6721644,40.0299727,70
6,Afar Region,ET,AF,11.7108206,41.0330866,70
7,Harari Region,ET,HA,9.2905517,42.1885672,70
8,Dire Dawa,ET,DD,9.5912196,41.9797191,70
9,Benishangul-Gumuz Region,ET,BE,10.4275424,35.561032,70
10,Gambela Region,ET,GA,7.8102647,34.1822172,70
11,Addis Ababa,ET,AA,9,38.75,70
12,Petnjica Municipality,ME,23,42.93002225,19.97948876,147
13,Bar Municipality,ME,2,42.1363737,19.2029047,147
14,Danilovgrad Municipality,ME,7,42.6120612,19.1007797,147
15,Rožaje Municipality,ME,17,42.8679001,20.1903482,147
16,Plužine Municipality,ME,15,43.14674145,18.82151826,147
17,Nikšić Municipality,ME,12,42.8367885,18.85199212,147
18,Šavnik Municipality,ME,18,42.9787743,19.16713961,147
19,Plav Municipality,ME,13,42.60882915,19.96503905,147
20,Pljevlja Municipality,ME,14,43.31297265,19.30572596,147
21,Berane Municipality,ME,3,42.8304227,19.83309098,147
22,Mojkovac Municipality,ME,11,42.97692875,19.47111743,147
23,Andrijevica Municipality,ME,1,42.7219982,19.754574,147
24,Gusinje Municipality,ME,22,42.54808685,19.82338462,147
25,Bijelo Polje Municipality,ME,4,43.0787479,19.69208726,147
26,Kotor Municipality,ME,10,42.44814015,18.78192096,147
27,Podgorica Municipality,ME,16,42.44594995,19.20983866,147
28,Old Royal Capital Cetinje,ME,6,42.45172,18.906356,147
29,Tivat Municipality,ME,19,42.4201512,18.71982789,147
30,Budva Municipality,ME,5,42.25834605,18.91961487,147
31,Kolašin Municipality,ME,9,42.78925615,19.4247231,147
32,Žabljak Municipality,ME,21,43.12931995,19.15317966,147
33,Ulcinj Municipality,ME,20,41.9649382,19.31548363,147
34,Kunene Region,NA,KU,-19.6792809,13.9756564,152
35,Kavango West Region,NA,KW,-18.256111,18.970201,152
36,Kavango East Region,NA,KE,-18.3982355,20.72468,152
37,Oshana Region,NA,ON,-18.4702308,15.7434419,152
38,Hardap Region,NA,HA,-24.4140944,17.4134051,152
39,Omusati Region,NA,OS,-18.2862314,14.8856679,152
40,Ohangwena Region,NA,OW,-17.5877369,16.7737955,152
41,Omaheke Region,NA,OH,-21.9074676,19.3929661,152
42,Oshikoto Region,NA,OT,-18.5464046,17.1019606,152
43,Erongo Region,NA,ER,-22.0278147,15.389358,152
44,Khomas Region,NA,KH,-22.7548349,17.1008606,152
45,Karas Region,NA,KA,-26.8752094,17.7634818,152
46,Otjozondjupa Region,NA,OD,-19.9424962,18.395886,152
47,Zambezi Region,NA,CA,-17.6912922,24.1377371,152
48,Ashanti Region,GH,AH,6.8003319,-1.5188142,83
49,Western Region,GH,WP,64.89592765,-22.15481901,83
50,Eastern Region,GH,EP,41.8368918,22.52384962,83
51,Northern Region,GH,NP,2.797198,32.2643949,83
52,Central Region,GH,CP,0.2815436,32.6270774,83
53,Brong-Ahafo Region,GH,BA,7.8258609,-1.5863941,83
54,Greater Accra Region,GH,AA,5.8101532,0.0995242,83
55,Upper East Region,GH,UE,10.8232224,-0.5699312,83
56,Volta Region,GH,TV,7.1920414,0.406167,83
57,Upper West Region,GH,UW,10.3669525,-2.0921426,83
58,San Marino,SM,7,43.9458623,12.458306,192
59,Acquaviva,SM,1,43.9464246,12.4191909,192
60,Chiesanuova,SM,2,45.4179247,7.6557874,192
61,Borgo Maggiore,SM,6,43.9411865,12.447422,192
62,Faetano,SM,4,43.9269122,12.4974633,192
63,Montegiardino,SM,8,43.9093574,12.4847155,192
64,Domagnano,SM,3,43.9508038,12.4693964,192
65,Serravalle,SM,9,43.9699026,12.4802946,192
66,Fiorentino,SM,5,43.9103157,12.4575556,192
67,Tillabéri Region,NE,6,14.113696,2.213564,160
68,Dosso Region,NE,3,46.916024,11.3099131,160
69,Zinder Region,NE,7,13.804556,8.989652,160
70,Maradi Region,NE,4,13.978794,7.270256,160
71,Agadez Region,NE,1,19.510843,10.613273,160
72,Diffa Region,NE,2,13.3555986,11.8654738,160
73,Tahoua Region,NE,5,14.4235673,6.044051221,160
74,Mqabba,MT,33,35.8456802,14.4666263,135
75,San Ġwann,MT,49,35.9093052,14.4788042,135
76,Żurrieq,MT,68,35.8294676,14.4745172,135
77,Luqa,MT,25,35.859653,14.4892913,135
78,Marsaxlokk,MT,28,35.8417662,14.5448353,135
79,Qala,MT,42,36.036291,14.3103502,135
80,Żebbuġ Malta,MT,66,36.0732721,14.2370559,135
81,Xgħajra,MT,63,35.8875724,14.547631,135
82,Kirkop,MT,23,35.8419845,14.4844481,135
83,Rabat,MT,46,34.022405,-6.834543,135
84,Floriana,MT,9,35.8929838,14.5052716,135
85,Żebbuġ Gozo,MT,65,36.0732721,14.2370559,135
86,Swieqi,MT,57,35.9236256,14.469548,135
87,Saint Lawrence,MT,50,44.4973591,-75.0657043,135
88,Birżebbuġa,MT,5,35.8269478,14.5274189,135
89,Mdina,MT,29,35.8858588,14.40273862,135
90,Santa Venera,MT,54,35.8897878,14.4802386,135
91,Kerċem,MT,22,36.0416854,14.228056,135
92,Għarb,MT,14,36.0598182,14.209081,135
93,Iklin,MT,19,35.911112,14.4521273,135
94,Santa Luċija,MT,53,36.0432761,14.217684,135
95,Valletta,MT,60,35.8989818,14.5136759,135
96,Msida,MT,34,35.8955967,14.4891548,135
97,Birkirkara,MT,4,35.8994547,14.4649578,135
98,Siġġiewi,MT,55,35.8539354,14.438063,135
99,Kalkara,MT,21,35.8898771,14.5290867,135
100,St. Julian's,MT,48,51.6000642,-2.9735689,135
101,Victoria,MT,45,-36.5986096,144.6780052,135
102,Mellieħa,MT,30,35.9599618,14.368367,135
103,Tarxien,MT,59,35.8648857,14.5114877,135
104,Sliema,MT,56,35.9127609,14.5020708,135
105,Ħamrun,MT,18,35.8867896,14.4854096,135
106,Għasri,MT,16,36.0655404,14.22173,135
107,Birgu,MT,3,35.8881119,14.5238445,135
108,Balzan,MT,2,35.8986113,14.4510172,135
109,Mġarr,MT,31,35.9194409,14.3665109,135
110,Attard,MT,1,35.8909172,14.4430093,135
111,Qrendi,MT,44,35.8343586,14.4578698,135
112,Naxxar,MT,38,35.9133396,14.4432851,135
113,Gżira,MT,12,35.9077803,14.4961247,135
114,Xagħra,MT,61,36.0502996,14.2648446,135
115,Paola,MT,39,39.359893,16.039588,135
116,Sannat,MT,52,46.1198733,2.4078788,135
117,Dingli,MT,7,35.8604202,14.3816818,135
118,Gudja,MT,11,35.8483258,14.5030882,135
119,Qormi,MT,43,35.877464,14.4739598,135
120,Għargħur,MT,15,35.9240307,14.4531676,135
121,Xewkija,MT,62,36.0323529,14.2609952,135
122,Ta' Xbiex,MT,58,35.8991087,14.4948986,135
123,Żabbar,MT,64,35.8753368,14.5374788,135
124,Għaxaq,MT,17,35.8484527,14.5173587,135
125,Pembroke,MT,40,45.818272,-77.11441,135
126,Lija,MT,24,50.6451381,5.5734203,135
127,Pietà,MT,41,50.0862886,14.4123372,135
128,Marsa,MT,26,45.8772222,3.0825,135
129,Fgura,MT,8,35.8728325,14.520799,135
130,Għajnsielem,MT,13,36.0288642,14.2871759,135
131,Mtarfa,MT,35,35.8915754,14.3978902,135
132,Munxar,MT,36,36.0306654,14.2347898,135
133,Nadur,MT,37,36.0389956,14.2934514,135
134,Fontana,MT,10,34.0922335,-117.435048,135
135,Żejtun,MT,67,35.8537008,14.5315311,135
136,Senglea,MT,20,35.887175,14.517307,135
137,Marsaskala,MT,27,35.8629162,14.5591879,135
138,Cospicua,MT,6,35.8825817,14.522721,135
139,St. Paul's Bay,MT,51,35.9480742,14.3973929,135
140,Mosta,MT,32,35.9079178,14.4241508,135
141,Mangystau Region,KZ,MAN,43.7362452,53.1681252,112
142,Kyzylorda Region,KZ,KZY,45.2058853,63.9155202,112
143,Almaty Region,KZ,ALM,45.2351691,77.2741871,112
144,North Kazakhstan Region,KZ,SEV,53.9797171,69.0450902,112
145,Akmola Region,KZ,AKM,51.8742347,69.8582132,112
146,Pavlodar Region,KZ,PAV,51.8111545,76.4285287,112
147,Jambyl Region,KZ,ZHA,44.4168463,72.134166,112
148,West Kazakhstan Province,KZ,ZAP,51.173893,53.011478,112
149,Turkestan Region,KZ,YUZ,43.298692,68.26296,112
150,Karaganda Region,KZ,KAR,48.1144938,70.1404868,112
151,Aktobe Region,KZ,AKT,48.2396582,57.7213289,112
152,Almaty,KZ,ALA,43.2363924,76.9457275,112
153,Atyrau Region,KZ,ATY,47.6605827,50.806203,112
154,East Kazakhstan Region,KZ,VOS,48.6130209,81.7489928,112
155,Baikonur,KZ,BAY,45.62504565,63.26892347,112
156,Nur-Sultan,KZ,AST,51.15092055,71.43885952,112
157,Kostanay Region,KZ,KUS,52.0615626,62.9372689,112
158,Kakamega County,KE,11,0.4957104,34.80154886,113
159,Kisii County,KE,16,-0.6694119,34.7677944,113
160,Central Province,KE,200,-8.50299555,158.8329719,113
161,Busia County,KE,4,0.3712048,34.26479521,113
162,North Eastern Province,KE,500,7.7473677,81.58863541,113
163,Embu County,KE,6,-0.53596265,37.66530197,113
164,Laikipia County,KE,20,0.2858452,36.82577108,113
165,Nandi District,KE,32,13.6434094,75.8556266,113
166,Lamu County,KE,21,-2.2846737,40.8640335,113
167,Kirinyaga County,KE,15,-0.46906815,37.30274927,113
168,Bungoma County,KE,3,0.7825199,34.71926688,113
169,Uasin Gishu District,KE,44,0.5255963,35.2767846,113
170,Isiolo County,KE,9,1.00606005,38.74789539,113
171,Kisumu County,KE,17,-0.1029109,34.7541761,113
172,Coast Province,KE,300,31.5131939,-9.7704741,113
173,Kwale County,KE,19,-4.1836067,39.10509553,113
174,Kilifi County,KE,14,-3.15073925,39.67507159,113
175,Narok County,KE,33,-1.27793655,35.47742693,113
176,Taita–Taveta County,KE,39,-3.4178355,38.36706757,113
177,Western Province,KE,800,-7.9245906,157.0382203,113
178,Muranga County,KE,29,-0.83091505,37.00486125,113
179,Rift Valley Province,KE,700,4.602064,35.459584,113
180,Nyeri County,KE,36,-0.3167549,36.93100636,113
181,Baringo County,KE,1,0.72514575,36.0194955,113
182,Wajir County,KE,46,1.9394402,40.02449393,113
183,Trans-Nzoia District,KE,42,1.01269705,35.00022241,113
184,Machakos County,KE,22,-1.27900465,37.39526976,113
185,Tharaka Nithi County,KE,41,-0.19370805,37.96140496,113
186,Siaya County,KE,38,-0.06040135,34.20128584,113
187,Mandera County,KE,24,3.2285332,40.70561647,113
188,Makueni County,KE,23,-2.25709305,37.87717148,113
189,Eastern Province,KE,400,7.7473677,81.58863541,113
190,Migori County,KE,27,-1.0211616,34.30964322,113
191,Nairobi,KE,110,-1.2832533,36.8172449,113
192,Nyandarua County,KE,35,-0.39155345,36.49776838,113
193,Kericho County,KE,12,-0.3209968,35.2261276,113
194,Marsabit County,KE,25,2.85795825,37.71548919,113
195,Homa Bay County,KE,8,-0.5628536,34.32035306,113
196,Garissa County,KE,7,-0.52360305,40.35638691,113
197,Kajiado County,KE,10,-2.12171705,36.78625504,113
198,Meru County,KE,26,0.2254509,37.77726237,113
199,Kiambu County,KE,13,-1.03207695,36.8156867,113
200,Mombasa County,KE,28,-4.0390146,39.64839096,113
201,Elgeyo-Marakwet County,KE,5,-1.2997671,36.77949,113
202,Vihiga District,KE,45,64.4556782,37.5185865,113
203,Nakuru District,KE,31,-0.28752735,36.07073103,113
204,Nyanza Province,KE,600,-2.78618075,29.73199586,113
205,Tana River County,KE,40,-1.53651195,39.55083745,113
206,Turkana County,KE,43,2.76556575,35.59772282,113
207,Samburu County,KE,37,0.6288935,37.6383594,113
208,West Pokot County,KE,47,1.8907646,35.20481389,113
209,Nyamira District,KE,34,-0.7808582,34.9478321,113
210,Bomet County,KE,2,-0.71845775,35.23912481,113
211,Kitui County,KE,18,-1.56422195,38.37281165,113
212,Bié Province,AO,BIE,43.0805539,-7.6703913,7
213,Huambo Province,AO,HUA,-12.7765392,15.7320468,7
214,Zaire Province,AO,ZAI,-5.8312429,13.45623044,7
215,Cunene Province,AO,CNN,28.6839429,-106.0410665,7
216,Cuanza Sul,AO,CUS,-10.7707527,15.0975712,7
217,Cuanza Norte Province,AO,CNO,-8.9096954,14.8728844,7
218,Benguela Province,AO,BGU,-12.5790048,13.4037117,7
219,Moxico Province,AO,MOX,-11.8481234,20.0417251,7
220,Lunda Sul Province,AO,LSU,-10.1473779,20.9907756,7
221,Bengo Province,AO,BGO,-20.6599519,-43.576777,7
222,Luanda Province,AO,LUA,-9.6175003,13.71662926,7
223,Lunda Norte Province,AO,LNO,-8.5088253,19.7538618,7
224,Uíge Province,AO,UIG,-7.6117323,15.0563515,7
225,Huíla Province,AO,HUI,-15.0660385,13.5512668,7
226,Cuando Cubango Province,AO,CCU,-16.0457694,19.5621532,7
227,Malanje Province,AO,MAL,-9.5438758,16.3475095,7
228,Cabinda Province,AO,CAB,-5.5576435,12.1919468,7
229,Gasa District,BT,GA,27.9190875,89.7875318,26
230,Tsirang District,BT,21,27.0532483,90.1181167,26
231,Wangdue Phodrang District,BT,24,27.544634,89.955581,26
232,Haa District,BT,13,27.3596658,89.2357556,26
233,Zhemgang District,BT,34,27.1743417,90.7622158,26
234,Lhuntse District,BT,44,27.7197145,91.0347391,26
235,Punakha District,BT,23,27.6685526,89.7089548,26
236,Trashigang District,BT,41,27.2843778,91.5742509,26
237,Paro District,BT,11,27.4646365,89.3183409,26
238,Dagana District,BT,22,27.0711389,89.820104,26
239,Chukha District,BT,12,26.943123,89.3770528,26
240,Bumthang District,BT,33,27.704364,90.6816415,26
241,Thimphu District,BT,15,27.5583211,89.5524789,26
242,Mongar District,BT,42,27.2065089,91.0900363,26
243,Samdrup Jongkhar District,BT,45,26.8751197,91.5511211,26
244,Pemagatshel District,BT,43,27.02561,91.4229601,26
245,Trongsa District,BT,32,27.4982491,90.4691469,26
246,Samtse District,BT,14,27.0352532,89.0147344,26
247,Sarpang District,BT,31,26.9863897,90.3800673,26
248,Tombouctou Region,ML,6,16.7719091,-3.0087272,134
249,Ségou Region,ML,4,13.441518,-6.268147,134
250,Koulikoro Region,ML,2,12.8646318,-7.5561287,134
251,Ménaka Region,ML,9,15.9307147,2.353206,134
252,Kayes Region,ML,1,14.443406,-11.437914,134
253,Bamako,ML,BKO,12.649319,-8.000337,134
254,Sikasso Region,ML,3,11.3164979,-5.6777499,134
255,Mopti Region,ML,5,14.4879631,-4.1905986,134
256,Taoudénit Region,ML,10,22.6723716,-3.9730105,134
257,Kidal Region,ML,8,18.4408358,1.4075395,134
258,Gao Region,ML,7,16.2788129,-0.0412392,134
259,Southern Province,RW,5,-2.6272137,29.6063049,183
260,Western Province,RW,4,-7.9245906,157.0382203,183
261,Eastern Province,RW,2,7.7473677,81.58863541,183
262,Kigali district,RW,1,64.3302462,161.9648577,183
263,Northern Province,RW,3,-10.6251633,31.1792378,183
264,Belize District,BZ,BZ,17.25,-88.166667,23
265,Stann Creek District,BZ,SC,16.833333,-88.5,23
266,Corozal District,BZ,CZL,18.25,-88.333333,23
267,Toledo District,BZ,TOL,16.333333,-88.75,23
268,Orange Walk District,BZ,OW,17.833333,-88.833333,23
269,Cayo District,BZ,CY,16.833333,-88.916667,23
270,Príncipe Province,ST,P,1.27359995,7.195974117,193
271,São Tomé Province,ST,S,0.62112495,6.817813468,193
272,Havana Province,CU,3,-22.2848975,166.4572094,56
273,Santiago de Cuba Province,CU,13,20.0223513,-75.8217639,56
274,Sancti Spíritus Province,CU,7,40.7054616,-6.4005474,56
275,Granma Province,CU,12,23.0195864,-82.8313607,56
276,Mayabeque Province,CU,16,22.86588175,-82.01355367,56
277,Pinar del Río Province,CU,1,-12.0328473,-77.0683655,56
278,Isla de la Juventud,CU,99,21.69109755,-82.81558556,56
279,Holguín Province,CU,11,20.8870943,-76.2592587,56
280,Villa Clara Province,CU,5,-31.8294435,-58.8214775,56
281,Las Tunas Province,CU,10,36.3204052,-5.7018571,56
282,Ciego de Ávila Province,CU,8,21.8419762,-78.7601053,56
283,Artemisa Province,CU,15,-12.072476,-76.9777353,56
284,Matanzas Province,CU,4,23.0469365,-81.5785643,56
285,Guantánamo Province,CU,14,20.1431797,-75.2034783,56
286,Camagüey Province,CU,9,21.3789431,-77.9183989,56
287,Cienfuegos Province,CU,6,43.2113856,-3.9389671,56
288,Jigawa State,NG,JI,12.3252362,9.5103296,161
289,Enugu State,NG,EN,6.4499833,7.5000007,161
290,Kebbi State,NG,KE,11.4206064,4.104901,161
291,Benue State,NG,BE,7.3505747,8.7772877,161
292,Sokoto State,NG,SO,13.05081365,5.246409043,161
293,Federal Capital Territory,NG,FC,8.8311228,7.1724673,161
294,Kaduna State,NG,KD,10.3825318,7.8533226,161
295,Kwara State,NG,KW,8.8367891,4.6688487,161
296,Oyo State,NG,OY,8.2151249,3.5642897,161
297,Yobe State,NG,YO,12.1233242,11.5065937,161
298,Kogi State,NG,KO,7.7949602,6.6868669,161
299,Zamfara State,NG,ZA,12.011132,6.4200337,161
300,Kano State,NG,KN,49.1828008,-0.3690815,161
301,Nasarawa State,NG,NA,8.4387868,8.2382849,161
302,Plateau State,NG,PL,9.0583446,9.6826289,161
303,Abia State,NG,AB,5.4540953,7.5153071,161
304,Akwa Ibom State,NG,AK,4.9408638,7.8412267,161
305,Bayelsa State,NG,BY,4.7629786,6.028898,161
306,Lagos,NG,LA,20.0171109,103.378253,161
307,Borno State,NG,BO,45.9473303,10.2064036,161
308,Imo State,NG,IM,5.5859456,7.0669651,161
309,Ekiti State,NG,EK,9.0311972,7.521753,161
310,Gombe State,NG,GO,10.28221605,11.16297712,161
311,Ebonyi State,NG,EB,6.1996918,8.0348906,161
312,Bauchi State,NG,BA,10.6228284,10.0287754,161
313,Katsina State,NG,KT,12.5630825,7.6207063,161
314,Cross River State,NG,CR,5.8671966,8.5204774,161
315,Anambra State,NG,AN,6.2183136,6.9531842,161
316,Delta State,NG,DE,7.1168383,80.6760004,161
317,Niger State,NG,NI,17.7356214,9.3238432,161
318,Edo State,NG,ED,6.6076575,5.9722713,161
319,Taraba State,NG,TA,8.0141334,10.7376336,161
320,Adamawa State,NG,AD,9.5129772,12.3881887,161
321,Ondo State,NG,ON,7.0209686,5.0567477,161
322,Osun State,NG,OS,7.5484047,4.4978307,161
323,Ogun State,NG,OG,6.9788582,3.4389293,161
324,Rukungiri District,UG,412,-0.78186235,29.92499523,229
325,Kyankwanzi District,UG,123,1.1431538,31.6023318,229
326,Kabarole District,UG,405,0.6538983,30.2978168,229
327,Mpigi District,UG,106,0.225005,32.32564,229
328,Apac District,UG,302,41.5396351,-8.614124042,229
329,Abim District,UG,314,2.5290232,33.9428748,229
330,Yumbe District,UG,313,3.2240817,31.4158733,229
331,Rukiga District,UG,431,-1.159811,30.074159,229
332,Northern Region,UG,N,2.797198,32.2643949,229
333,Serere District,UG,232,1.5467183,33.4385709,229
334,Kamuli District,UG,205,0.94224745,33.1263004,229
335,Amuru District,UG,316,35.08651145,135.7844686,229
336,Kaberamaido District,UG,213,1.751233,33.228169,229
337,Namutumba District,UG,224,0.872784,33.666366,229
338,Kibuku District,UG,227,1.05737535,33.80561522,229
339,Ibanda District,UG,417,46.9933107,6.9371274,229
340,Iganga District,UG,203,1.166667,33.05,229
341,Dokolo District,UG,317,1.9101289,33.07507795,229
342,Lira District,UG,307,47.1469604,142.641291,229
343,Bukedea District,UG,219,1.37070475,34.14247622,229
344,Alebtong District,UG,323,2.2692081,33.32110645,229
345,Koboko District,UG,319,7.9662083,-2.949389,229
346,Kiryandongo District,UG,421,1.99357995,32.04981791,229
347,Kiboga District,UG,103,1.1431538,31.6023318,229
348,Kitgum District,UG,305,3.29514335,32.88361702,229
349,Bududa District,UG,218,1.01010685,34.33098629,229
350,Mbale District,UG,209,1.069808,34.1679242,229
351,Namayingo District,UG,230,-0.29402185,33.81054697,229
352,Amuria District,UG,216,2.068622,33.62071776,229
353,Amudat District,UG,324,1.82619575,34.93126979,229
354,Masindi District,UG,409,9.8675891,-11.3835722,229
355,Kiruhura District,UG,419,-0.2490242,30.84395834,229
356,Masaka District,UG,105,-23.8705382,31.6729349,229
357,Pakwach District,UG,332,2.4608979,31.498716,229
358,Rubanda District,UG,429,-1.1324022,29.793289,229
359,Tororo District,UG,212,-15.983504,-47.834309,229
360,Kamwenge District,UG,413,0.1808323,30.4489003,229
361,Adjumani District,UG,301,3.3747421,31.7963591,229
362,Wakiso District,UG,113,0.2182858,32.51303038,229
363,Moyo District,UG,309,47.5164966,18.9999944,229
364,Mityana District,UG,115,0.45606855,32.07680242,229
365,Butaleja District,UG,221,0.9150634,33.96024196,229
366,Gomba District,UG,121,48.0961007,17.3965567,229
367,Jinja District,UG,204,34.73515975,135.3346772,229
368,Kayunga District,UG,112,0.99240735,32.8592384,229
369,Kween District,UG,228,1.35166485,34.56358069,229
370,Western Region,UG,W,64.89592765,-22.15481901,229
371,Mubende District,UG,107,0.5162067,31.56599081,229
372,Eastern Region,UG,E,41.8368918,22.52384962,229
373,Kanungu District,UG,414,-0.8942786,29.777275,229
374,Omoro District,UG,331,34.6231388,135.5548738,229
375,Bukomansimbi District,UG,118,-0.1261468,31.62277539,229
376,Lyantonde District,UG,114,-0.25959835,31.18363758,229
377,Buikwe District,UG,117,0.30529635,33.03857133,229
378,Nwoya District,UG,328,2.6012608,31.94646993,229
379,Zombo District,UG,330,2.52511635,30.88973226,229
380,Buyende District,UG,226,1.235238,33.17035332,229
381,Bunyangabu District,UG,430,0.514883,30.171477,229
382,Kampala District,UG,102,10.79142285,-0.791597175,229
383,Isingiro District,UG,418,-0.8570987,30.9178599,229
384,Butambala District,UG,119,0.16426525,32.13523707,229
385,Bukwo District,UG,220,1.2549526,34.69242601,229
386,Bushenyi District,UG,402,-0.5980669,30.3619372,229
387,Bugiri District,UG,201,1.083333,33.716667,229
388,Butebo District,UG,233,1.1957047,33.9027811,229
389,Buliisa District,UG,416,1.92285635,31.39175659,229
390,Otuke District,UG,329,2.4784334,33.39335623,229
391,Buhweju District,UG,420,-0.3203668,30.31621972,229
392,Agago District,UG,322,2.9476598,33.38610569,229
393,Nakapiripirit District,UG,311,1.97417595,34.6095899,229
394,Kalungu District,UG,122,-0.09636065,31.81363173,229
395,Moroto District,UG,308,-28.4503447,21.2019466,229
396,Central Region,UG,C,0.2815436,32.6270774,229
397,Oyam District,UG,321,2.3858906,32.51329537,229
398,Kaliro District,UG,222,0.8997419,33.5055562,229
399,Kakumiro District,UG,428,0.7812042,31.32445,229
400,Namisindwa District,UG,234,0.816667,34.383333,229
401,Kole District,UG,325,9.7108116,-12.4363601,229
402,Kyenjojo District,UG,415,0.64546435,30.65831544,229
403,Kagadi District,UG,427,0.9473399,30.8039626,229
404,Ntungamo District,UG,411,-0.8763876,30.2665335,229
405,Kalangala District,UG,101,-0.3208374,32.2937428,229
406,Nakasongola District,UG,109,1.3204358,32.48943469,229
407,Sheema District,UG,426,-0.5980669,30.3619372,229
408,Pader District,UG,312,3.29514335,32.88361702,229
409,Kisoro District,UG,408,-1.3352357,29.7361139,229
410,Mukono District,UG,108,0.36146485,32.74225768,229
411,Lamwo District,UG,326,3.5636208,32.7411875,229
412,Pallisa District,UG,210,1.05737535,33.80561522,229
413,Gulu District,UG,304,29.838855,106.742604,229
414,Buvuma District,UG,120,-0.61313195,33.19730024,229
415,Mbarara District,UG,410,-0.6168895,30.65835923,229
416,Amolatar District,UG,315,1.63912425,32.78574762,229
417,Lwengo District,UG,124,-0.3973432,31.4085907,229
418,Mayuge District,UG,214,0.4393995,33.4770862,229
419,Bundibugyo District,UG,401,0.6493252,30.04242331,229
420,Katakwi District,UG,207,1.97332855,34.05733892,229
421,Maracha District,UG,320,40.210281,-8.430741672,229
422,Ntoroko District,UG,424,0.99093635,30.38823435,229
423,Nakaseke District,UG,116,0.7194112,32.3952676,229
424,Ngora District,UG,231,1.4988837,33.77292984,229
425,Kumi District,UG,208,8.2627747,-0.1673803,229
426,Kabale District,UG,404,-1.2534654,29.9912234,229
427,Sembabule District,UG,111,-0.0526845,31.40896551,229
428,Bulambuli District,UG,225,1.2992853,34.3193213,229
429,Sironko District,UG,215,1.2180817,34.2978144,229
430,Napak District,UG,327,2.412963,34.3687409,229
431,Busia District,UG,202,64.7360306,177.5132511,229
432,Kapchorwa District,UG,206,1.2992853,34.3193213,229
433,Luwero District,UG,104,0.8411986,32.4918344,229
434,Kaabong District,UG,318,3.64462295,34.01736828,229
435,Mitooma District,UG,423,-0.6190241,30.0441258,229
436,Kibaale District,UG,407,0.9276864,31.0027294,229
437,Kyegegwa District,UG,422,0.48318605,31.00064098,229
438,Manafwa District,UG,223,0.8248329,34.2911155,229
439,Rakai District,UG,110,53.9740012,24.7068018,229
440,Kasese District,UG,406,0.1749051,30.0822914,229
441,Budaka District,UG,217,1.0155568,33.9565361,229
442,Rubirizi District,UG,425,-0.2725426,30.1071412,229
443,Kotido District,UG,306,3.03355925,34.0388576,229
444,Soroti District,UG,211,1.715522,33.6112773,229
445,Luuka District,UG,229,0.7637642,33.3320718,229
446,Nebbi District,UG,310,2.4679181,31.28230334,229
447,Arua District,UG,303,23.7873388,89.8140639,229
448,Kyotera District,UG,125,-0.6295966,31.5421287,229
449,Schellenberg,LI,8,47.2312022,9.5458021,125
450,Schaan,LI,7,47.1663397,9.510312,125
451,Eschen,LI,2,48.913344,6.5912051,125
452,Vaduz,LI,11,47.1392862,9.5227962,125
453,Ruggell,LI,6,47.2397575,9.5262871,125
454,Planken,LI,5,47.1858848,9.5452211,125
455,Mauren,LI,4,47.2196512,9.5418065,125
456,Triesenberg,LI,10,47.1186181,9.5433663,125
457,Gamprin,LI,3,47.2190937,9.5102476,125
458,Balzers,LI,1,47.0666667,9.5,125
459,Triesen,LI,9,47.106994,9.5274876,125
460,Brčko District,BA,BRC,44.84375945,18.79841088,28
461,Tuzla Canton,BA,3,44.54628975,18.57428562,28
462,Central Bosnia Canton,BA,6,44.1269981,17.60748044,28
463,Herzegovina-Neretva Canton,BA,7,43.2454799,17.79132821,28
464,Posavina Canton,BA,2,45.06622705,18.33623943,28
465,Una-Sana Canton,BA,1,44.74033335,16.35189407,28
466,Sarajevo Canton,BA,9,43.85399635,18.31247443,28
467,Federation of Bosnia and Herzegovina,BA,BIH,43.92028845,17.5461931,28
468,Zenica-Doboj Canton,BA,4,44.31621325,18.16669333,28
469,West Herzegovina Canton,BA,8,43.37450195,17.47577873,28
470,Republika Srpska,BA,SRP,44.6695772,17.36571548,28
471,Canton 10,BA,10,44.0178137,16.91156847,28
472,Bosnian Podrinje Canton,BA,5,43.67089475,18.81923362,28
473,Dakar,SN,DK,14.693425,-17.447938,195
474,Kolda,SN,KD,60.9666299,7.0626786,195
475,Kaffrine,SN,KA,14.2824927,-15.0247364,195
476,Matam,SN,MT,15.0028849,-13.9240088,195
477,Saint-Louis,SN,SL,38.6268039,-90.1994097,195
478,Ziguinchor,SN,ZG,12.5634929,-16.2724609,195
479,Fatick,SN,FK,13.9406041,-16.4024021,195
480,Diourbel Region,SN,DB,14.7755235,-16.18668995,195
481,Kédougou,SN,KE,12.8851482,-12.2867563,195
482,Sédhiou,SN,SE,12.7099045,-15.557338,195
483,Kaolack,SN,KL,13.9631756,-15.7888834,195
484,Thiès Region,SN,TH,14.7454807,-16.86319668,195
485,Louga,SN,LG,15.2401304,-15.3441834,195
486,Tambacounda Region,SN,TC,13.86863235,-13.31903285,195
487,Encamp,AD,3,42.5359781,1.5836753,6
488,Andorra la Vella,AD,7,42.5069391,1.5212467,6
489,Canillo,AD,2,42.5668305,1.5977647,6
490,Sant Julià de Lòria,AD,6,42.46671695,1.496344977,6
491,Ordino,AD,5,42.55615,1.5334945,6
492,Escaldes-Engordany,AD,8,42.48691275,1.607000114,6
493,La Massana,AD,4,42.5442014,1.5163754,6
494,Mont Buxton,SC,17,51.5914441,-127.9861937,197
495,La Digue,SC,15,48.6681105,-4.2134762,197
496,Saint Louis,SC,22,38.6268039,-90.1994097,197
497,Baie Lazare,SC,6,-4.7526077,55.4811946,197
498,Mont Fleuri,SC,18,-4.1868937,12.674744,197
499,Les Mamelles,SC,24,-12.2437064,49.1730714,197
500,Grand'Anse Mahé,SC,13,-4.6750171,55.4505286,197
501,Roche Caiman,SC,25,-4.63405165,55.467941,197
502,Anse Royale,SC,5,-4.7376121,55.5176065,197
503,Glacis,SC,12,19.5767522,-72.8062496,197
504,Grand'Anse Praslin,SC,14,-4.28165195,55.74050274,197
505,Bel Ombre,SC,10,-4.6193716,55.4112979,197
506,Anse-aux-Pins,SC,1,-4.70017395,55.52205313,197
507,Port Glaud,SC,21,-4.66406,55.4177606,197
508,Au Cap,SC,4,22.4156139,114.1996692,197
509,Takamaka,SC,23,-4.3269301,55.7298101,197
510,Pointe La Rue,SC,20,-4.6813199,55.5233954,197
511,Plaisance,SC,19,45.0534751,9.6947461,197
512,Beau Vallon,SC,8,-4.6135556,55.4288241,197
513,Anse Boileau,SC,2,-4.7110788,55.4836699,197
514,Baie Sainte Anne,SC,7,47.0472588,-64.9625674,197
515,Bel Air,SC,9,34.0827278,-118.4479802,197
516,La Rivière Anglaise,SC,16,4.9413326,-52.3165249,197
517,Cascade,SC,11,47.3271465,-111.3281242,197
518,Shaki,AZ,SA,41.1999786,47.1796374,16
519,Tartar District,AZ,TAR,40.3292302,46.9471508,16
520,Shirvan,AZ,SR,37.40258515,57.92791045,16
521,Qazakh District,AZ,QAZ,41.17390635,45.25441109,16
522,Sadarak District,AZ,SAD,39.68724815,44.88445661,16
523,Yevlakh District,AZ,YEV,40.72143185,47.05513842,16
524,Khojali District,AZ,XCI,39.9127769,46.7911646,16
525,Kalbajar District,AZ,KAL,40.106667,46.038333,16
526,Qakh District,AZ,QAX,41.2563763,46.80381525,16
527,Fizuli District,AZ,FUZ,39.58309775,47.4819815,16
528,Astara District,AZ,AST,38.51559775,48.88501895,16
529,Shamakhi District,AZ,SMI,40.6101529,48.58987365,16
530,Neftchala District,AZ,NEF,39.35619615,49.10913227,16
531,Goychay,AZ,GOY,40.56969585,47.84205315,16
532,Bilasuvar District,AZ,BIL,39.5243298,48.47711524,16
533,Tovuz District,AZ,TOV,43.133523,131.9004681,16
534,Ordubad District,AZ,ORD,39.0760215,45.92280532,16
535,Sharur District,AZ,SAR,39.58926475,45.03621853,16
536,Samukh District,AZ,SMX,40.93693375,46.50483767,16
537,Khizi District,AZ,XIZ,40.76469015,49.23208437,16
538,Yevlakh,AZ,YE,40.6089237,47.1492152,16
539,Ujar District,AZ,UCA,40.43307,47.73289322,16
540,Absheron District,AZ,ABS,40.3728876,49.23634179,16
541,Lachin District,AZ,LAC,61.3068021,73.14478912,16
542,Qabala District,AZ,QAB,40.9438991,47.81780745,16
543,Agstafa District,AZ,AGA,41.2063715,45.53555955,16
544,Imishli District,AZ,IMI,39.8679054,48.0207626,16
545,Salyan District,AZ,SAL,39.65241015,49.10843813,16
546,Lerik District,AZ,LER,38.74879815,48.43987629,16
547,Agsu District,AZ,AGU,40.55830005,48.35236462,16
548,Qubadli District,AZ,QBI,39.5487014,47.3911808,16
549,Kurdamir District,AZ,KUR,40.26515915,48.22482008,16
550,Yardymli District,AZ,YAR,38.90289935,48.21329835,16
551,Goranboy District,AZ,GOR,40.6065534,46.70500982,16
552,Baku,AZ,BA,40.3754434,49.8326748,16
553,Agdash District,AZ,AGS,40.5605709,47.39178424,16
554,Beylagan District,AZ,BEY,39.85003735,47.65461418,16
555,Masally District,AZ,MAS,39.03009235,48.68544491,16
556,Oghuz District,AZ,OGU,41.0433962,47.47568189,16
557,Saatly District,AZ,SAT,39.8378466,48.45557949,16
558,Lankaran District,AZ,LA,38.9446244,49.10947601,16
559,Agdam District,AZ,AGM,40.02355045,47.07178553,16
560,Balakan District,AZ,BAL,41.7346776,46.41472221,16
561,Dashkasan District,AZ,DAS,40.475196,46.015068,16
562,Nakhchivan Autonomous Republic,AZ,NX,39.333333,45.5,16
563,Quba District,AZ,QBA,41.18808935,48.37214516,16
564,Ismailli District,AZ,ISM,40.7979446,48.19228438,16
565,Sabirabad District,AZ,SAB,39.88881185,48.79545298,16
566,Zaqatala District,AZ,ZAQ,40.7193868,47.2145473,16
567,Kangarli District,AZ,KAN,39.36322165,45.2098308,16
568,Martuni,AZ,XVD,39.78632465,47.05493894,16
569,Barda District,AZ,BAR,40.36113335,47.19473248,16
570,Jabrayil District,AZ,CAB,39.39201795,47.27909698,16
571,Hajigabul District,AZ,HAC,40.1032431,48.92832753,16
572,Julfa District,AZ,CUL,39.14114205,45.69497117,16
573,Gobustan District,AZ,QOB,40.5326044,48.99416762,16
574,Goygol District,AZ,GYG,40.5305383,46.32185066,16
575,Babek District,AZ,BAB,39.25245005,45.45142559,16
576,Zardab District,AZ,ZAR,40.2439928,47.7142425,16
577,Aghjabadi District,AZ,AGC,39.9886107,47.40021945,16
578,Jalilabad District,AZ,CAL,39.23163585,48.42726802,16
579,Shahbuz District,AZ,SAH,39.43858165,45.60713327,16
580,Mingachevir,AZ,MI,40.7653175,47.0512947,16
581,Zangilan District,AZ,ZAN,39.0863717,46.6564485,16
582,Sumqayit,AZ,SM,40.5961055,49.6697285,16
583,Shamkir District,AZ,SKR,54.9743204,39.0083998,16
584,Siazan District,AZ,SIY,41.08538335,49.24146464,16
585,Ganja,AZ,GA,40.6794747,46.3564509,16
586,Shaki District,AZ,SAK,41.12041675,47.08109472,16
587,Lankaran,AZ,LAN,38.76565935,48.82653662,16
588,Qusar District,AZ,QUS,41.44986825,48.28889275,16
589,Gədəbəy,AZ,GAD,40.5551911,45.67435679,16
590,Khachmaz District,AZ,XAC,41.6529159,48.82282177,16
591,Shabran District,AZ,SBN,41.16871455,48.86239737,16
592,Shusha District,AZ,SUS,59.8683521,30.48447626,16
593,Skrapar District,AL,SK,40.5649737,19.496937,3
594,Kavajë District,AL,KA,41.1834239,19.5599485,3
595,Lezhë District,AL,LE,42.6906658,23.3260033,3
596,Librazhd District,AL,LB,41.1802251,20.3167518,3
597,Korçë District,AL,KO,48.5327687,22.0704217,3
598,Elbasan County,AL,3,41.05108285,20.13985256,3
599,Lushnjë District,AL,LU,40.9422038,19.7059724,3
600,Has District,AL,HA,15.180628,44.907186,3
601,Kukës County,AL,7,42.1885664,20.37698865,3
602,Malësi e Madhe District,AL,MM,42.3824139,19.57506287,3
603,Berat County,AL,1,40.6172775,20.10469145,3
604,Gjirokastër County,AL,5,40.1556241,20.21392537,3
605,Dibër District,AL,DI,41.62219195,20.18081604,3
606,Pogradec District,AL,PG,40.8998739,20.6573881,3
607,Bulqizë District,AL,BU,41.4922026,20.2183758,3
608,Devoll District,AL,DV,40.8618613,19.928708,3
609,Lezhë County,AL,8,41.7932359,19.88896861,3
610,Dibër County,AL,9,41.62219195,20.18081604,3
611,Shkodër County,AL,10,42.2507677,19.59597231,3
612,Kuçovë District,AL,KC,40.804415,19.9134448,3
613,Vlorë District,AL,VL,40.4695908,19.4837727,3
614,Krujë District,AL,KR,41.5111289,19.7923649,3
615,Tirana County,AL,11,41.2573191,19.79069533,3
616,Tepelenë District,AL,TE,40.2982258,20.0208733,3
617,Gramsh District,AL,GR,40.8654273,20.1864495,3
618,Delvinë District,AL,DL,39.9499249,20.0975332,3
619,Peqin District,AL,PQ,32.990278,35.320833,3
620,Pukë District,AL,PU,24.2221,103.954,3
621,Gjirokastër District,AL,GJ,40.0770871,20.1393359,3
622,Kurbin District,AL,KB,41.6391989,19.71021723,3
623,Kukës District,AL,KU,6.4138,-9.74836,3
624,Sarandë District,AL,SR,40.4543203,19.4862676,3
625,Përmet District,AL,PR,47.4156592,18.9833279,3
626,Shkodër District,AL,SH,42.0740698,19.52452646,3
627,Fier District,AL,FR,-33.9119655,18.8590868,3
628,Kolonjë District,AL,ER,40.8254518,19.6048673,3
629,Berat District,AL,BR,48.3801439,10.8587877,3
630,Korçë County,AL,6,40.5884671,20.72925216,3
631,Fier County,AL,4,40.7419907,19.56970864,3
632,Durrës County,AL,2,41.43269535,19.5347907,3
633,Tirana District,AL,TR,42.6622526,23.3972634,3
634,Vlorë County,AL,12,40.154212,19.752181,3
635,Mat District,AL,MT,48.1934234,19.983232,3
636,Tropojë District,AL,TP,42.4033485,20.1641348,3
637,Mallakastër District,AL,MK,40.54143585,19.76562099,3
638,Mirditë District,AL,MR,42.627196,21.0846956,3
639,Durrës District,AL,DR,41.3188294,19.4451631,3
640,Sveti Nikole Municipality,MK,69,41.8647339,21.9420506,129
641,Kratovo Municipality,MK,43,42.079261,22.1802182,129
642,Zajas Municipality,MK,31,41.6073003,20.938677,129
643,Staro Nagoričane Municipality,MK,71,42.1990188,21.8294161,129
644,Češinovo-Obleševo Municipality,MK,81,41.8694193,22.286186,129
645,Debarca Municipality,MK,22,41.0329725,21.337575,129
646,Probištip Municipality,MK,63,41.9998386,22.1784767,129
647,Krivogaštani Municipality,MK,45,41.336017,21.3307096,129
648,Gevgelija Municipality,MK,18,41.1414609,22.5049278,129
649,Bogdanci Municipality,MK,5,41.201607,22.577652,129
650,Vraneštica Municipality,MK,15,41.4444302,21.0268331,129
651,Veles Municipality,MK,13,41.715974,21.7801986,129
652,Bosilovo Municipality,MK,7,41.4410377,22.7280638,129
653,Mogila Municipality,MK,53,41.1084859,21.3775841,129
654,Tearce Municipality,MK,75,42.0755157,21.0508376,129
655,Demir Kapija Municipality,MK,24,41.4085437,22.2408307,129
656,Aračinovo Municipality,MK,2,42.0252965,21.5577659,129
657,Drugovo Municipality,MK,28,41.4871695,20.9308016,129
658,Vasilevo Municipality,MK,11,41.4742136,22.6439393,129
659,Lipkovo Municipality,MK,48,42.1572002,21.5860103,129
660,Brvenica Municipality,MK,8,43.3469495,20.58601511,129
661,Štip Municipality,MK,83,41.7374724,22.1935856,129
662,Vevčani Municipality,MK,12,41.2404395,20.5923585,129
663,Tetovo Municipality,MK,76,42.0099697,20.9711401,129
664,Negotino Municipality,MK,54,41.4848037,22.0912858,129
665,Konče Municipality,MK,41,41.4949456,22.3842349,129
666,Prilep Municipality,MK,62,41.35213875,21.56738517,129
667,Saraj Municipality,MK,68,41.475765,22.7024501,129
668,Želino Municipality,MK,30,41.9857591,21.0648865,129
669,Mavrovo and Rostuša Municipality,MK,50,41.65178,20.7358064,129
670,Plasnica Municipality,MK,61,41.4672237,21.1236869,129
671,Valandovo Municipality,MK,10,41.3173419,22.5619765,129
672,Vinica Municipality,MK,14,41.8847356,22.5044468,129
673,Zrnovci Municipality,MK,33,41.853646,22.4459466,129
674,Karbinci,MK,37,41.8163645,22.2370838,129
675,Dolneni Municipality,MK,27,41.4245544,21.454623,129
676,Čaška Municipality,MK,80,41.6472279,21.6913009,129
677,Kriva Palanka Municipality,MK,44,42.1980952,22.3316944,129
678,Jegunovce Municipality,MK,35,42.0734826,21.1201874,129
679,Bitola Municipality,MK,4,41.03525865,21.33927723,129
680,Šuto Orizari Municipality,MK,84,42.038136,21.42312654,129
681,Karpoš Municipality,MK,38,41.9963704,21.39187226,129
682,Oslomej Municipality,MK,57,41.576014,20.9976908,129
683,Kumanovo Municipality,MK,47,42.1359459,21.7177635,129
684,Greater Skopje,MK,85,41.9960924,21.4316495,129
685,Pehčevo Municipality,MK,60,41.7635729,22.8873017,129
686,Kisela Voda Municipality,MK,39,42.1217809,21.74570213,129
687,Demir Hisar Municipality,MK,25,41.2198967,21.2020872,129
688,Kičevo Municipality,MK,40,41.5117618,20.960212,129
689,Vrapčište Municipality,MK,16,41.8339557,20.8839178,129
690,Ilinden Municipality,MK,34,41.993768,21.5775059,129
691,Rosoman Municipality,MK,67,42.7574154,23.0764015,129
692,Makedonski Brod Municipality,MK,52,41.507489,21.2165416,129
693,Gostivar Municipality,MK,19,41.7942579,20.9081193,129
694,Butel Municipality,MK,9,42.03247925,21.44511287,129
695,Delčevo Municipality,MK,23,41.9668344,22.7767722,129
696,Novaci Municipality,MK,55,41.0417702,21.4578033,129
697,Dojran Municipality,MK,26,41.21152285,22.74620509,129
698,Petrovec Municipality,MK,59,41.9386289,21.6160528,129
699,Ohrid Municipality,MK,58,41.1127104,20.7993744,129
700,Struga Municipality,MK,72,41.1841355,20.6802628,129
701,Makedonska Kamenica Municipality,MK,51,42.0214346,22.5889336,129
702,Centar Municipality,MK,77,41.99654585,21.43104935,129
703,Aerodrom Municipality,MK,1,41.9747186,21.48758452,129
704,Čair Municipality,MK,79,43.2645982,18.7882531,129
705,Lozovo Municipality,MK,49,41.7806249,21.9072683,129
706,Zelenikovo Municipality,MK,32,41.8860162,21.5858827,129
707,Gazi Baba Municipality,MK,17,42.00907895,21.48062474,129
708,Gradsko Municipality,MK,20,41.5732522,21.9523064,129
709,Radoviš Municipality,MK,64,41.6345035,22.4665377,129
710,Strumica Municipality,MK,73,41.4392045,22.6397203,129
711,Studeničani Municipality,MK,74,41.9219511,21.5357186,129
712,Resen Municipality,MK,66,41.0896049,21.0122346,129
713,Kavadarci Municipality,MK,36,41.44,22.01,129
714,Kruševo Municipality,MK,46,41.3677894,21.2524233,129
715,Čučer-Sandevo Municipality,MK,82,42.0994869,21.3868611,129
716,Berovo Municipality,MK,3,41.706668,22.8535559,129
717,Rankovce Municipality,MK,65,42.1686201,22.1165518,129
718,Novo Selo Municipality,MK,56,41.7396813,21.84206915,129
719,Sopište Municipality,MK,70,41.957221,21.4333346,129
720,Centar Župa Municipality,MK,78,41.4792442,20.5573022,129
721,Bogovinje Municipality,MK,6,41.9249545,20.914348,129
722,Gjorče Petrov Municipality,MK,29,42.0062448,20.9635319,129
723,Kočani Municipality,MK,42,41.9211332,22.4114182,129
724,Požega-Slavonia County,HR,11,45.4381151,17.5133687,55
725,Split-Dalmatia County,HR,17,43.07361015,16.02798905,55
726,Međimurje County,HR,20,46.4232963,16.4661353,55
727,Zadar County,HR,13,44.2232882,15.3739652,55
728,Dubrovnik-Neretva County,HR,19,42.7580845,17.3352326,55
729,Krapina-Zagorje County,HR,2,46.0983218,15.9377404,55
730,Šibenik-Knin County,HR,15,43.8410419,16.022628,55
731,Lika-Senj County,HR,9,44.6682563,15.3225776,55
732,Virovitica-Podravina County,HR,10,45.7732751,17.5789161,55
733,Sisak-Moslavina County,HR,3,45.3330101,16.49187075,55
734,Bjelovar-Bilogora County,HR,7,45.7462142,16.9212335,55
735,Primorje-Gorski Kotar County,HR,8,45.4225937,14.6172032,55
736,Zagreb County,HR,1,45.7017634,16.2347136,55
737,Brod-Posavina County,HR,12,45.2444285,17.9232927,55
738,Zagreb,HR,21,45.813177,15.977048,55
739,Varaždin County,HR,5,46.2572752,16.2900851,55
740,Osijek-Baranja County,HR,14,45.541111,18.4384615,55
741,Vukovar-Syrmia County,HR,16,45.2283407,18.8590442,55
742,Koprivnica-Križevci County,HR,6,46.12020575,16.779843,55
743,Istria County,HR,18,45.2098898,13.6822959,55
744,Kyrenia District,CY,6,35.31573615,33.27818631,57
745,Nicosia District,CY,1,35.0820519,33.07317599,57
746,Paphos District,CY,5,34.9169592,32.49821227,57
747,Larnaca District,CY,3,34.91146155,33.46947857,57
748,Limassol District,CY,2,34.79489125,32.98558938,57
749,Famagusta District,CY,4,35.3259885,33.82447807,57
750,Rangpur Division,BD,F,25.833558,88.9939966,19
751,Cox's Bazar District,BD,11,21.16587175,92.03996425,19
752,Bandarban District,BD,1,21.787476,92.40732533,19
753,Rajshahi Division,BD,E,24.4611511,88.6888703,19
754,Pabna District,BD,49,24.08424665,89.34446442,19
755,Sherpur District,BD,57,32.5981749,74.4925735,19
756,Bhola District,BD,7,22.33654225,90.84390157,19
757,Jessore District,BD,22,23.0842444,89.12469391,19
758,Mymensingh Division,BD,H,24.8386014,90.4112695,19
759,Rangpur District,BD,55,25.6245846,89.2590783,19
760,Dhaka Division,BD,C,24.271176,90.2161818,19
761,Chapai Nawabganj District,BD,45,24.69272,88.25983654,19
762,Faridpur District,BD,15,23.46492195,89.86194536,19
763,Comilla District,BD,8,23.4208026,91.07945528,19
764,Netrokona District,BD,41,24.87457385,90.78185746,19
765,Sylhet Division,BD,G,24.4932874,91.7085743,19
766,Mymensingh District,BD,34,24.72263185,90.4186808,19
767,Sylhet District,BD,60,24.89046265,91.96559868,19
768,Chandpur District,BD,9,23.25785445,90.80658908,19
769,Narail District,BD,43,23.1341978,89.53960497,19
770,Narayanganj District,BD,40,26.7606324,88.1560134,19
771,Dhaka District,BD,13,23.77981495,90.36178191,19
772,Nilphamari District,BD,46,26.02447125,88.93266012,19
773,Rajbari District,BD,53,23.73983725,89.57041333,19
774,Kushtia District,BD,30,23.94791415,88.97829461,19
775,Khulna Division,BD,D,22.9372087,89.2852741,19
776,Meherpur District,BD,39,23.7887446,88.70198919,19
777,Patuakhali District,BD,51,22.18931425,90.48903812,19
778,Jhalokati District,BD,25,22.6433,90.2,19
779,Kishoreganj District,BD,26,24.34081375,90.92768329,19
780,Lalmonirhat District,BD,32,26.12269205,89.16257838,19
781,Sirajganj District,BD,59,24.45389545,89.70186222,19
782,Tangail District,BD,63,24.3764006,89.99322158,19
783,Dinajpur District,BD,14,25.6428253,88.72247038,19
784,Barguna District,BD,2,22.157833,90.12949482,19
785,Chittagong District,BD,10,22.5005181,91.48154689,19
786,Khagrachari District,BD,29,23.21477295,91.9591022,19
787,Natore District,BD,44,24.3951559,89.09136195,19
788,Chuadanga District,BD,12,23.6033134,88.82440289,19
789,Jhenaidah District,BD,23,23.49471375,89.12546784,19
790,Munshiganj District,BD,35,23.52655035,90.41845758,19
791,Pirojpur District,BD,50,22.50956015,90.0072595,19
792,Gopalganj District,BD,17,23.10349275,89.90784057,19
793,Kurigram District,BD,28,25.8059698,89.64343042,19
794,Moulvibazar District,BD,38,24.485147,91.88021347,19
795,Gaibandha District,BD,19,25.33984255,89.53926024,19
796,Bagerhat District,BD,5,22.5705212,89.9666343,19
797,Bogra District,BD,3,24.8480859,89.3729529,19
798,Gazipur District,BD,18,24.7372515,90.508373,19
799,Satkhira District,BD,58,22.729257,89.0838513,19
800,Panchagarh District,BD,52,26.32215705,88.54773094,19
801,Shariatpur District,BD,62,23.2355375,90.43997926,19
802,Bahadia,BD,33,23.78973595,90.16743413,19
803,Chittagong Division,BD,B,22.3307998,91.8412863,19
804,Thakurgaon District,BD,64,25.936331,88.311688,19
805,Habiganj District,BD,20,24.33458425,91.42121219,19
806,Joypurhat District,BD,24,25.06604625,89.09226032,19
807,Barisal Division,BD,A,22.7046314,90.3711417,19
808,Jamalpur District,BD,21,28.9617956,75.9568209,19
809,Rangamati Hill District,BD,56,22.81772915,92.21970726,19
810,Brahmanbaria District,BD,4,23.96059985,91.11908935,19
811,Khulna District,BD,27,23.0842444,89.12469391,19
812,Sunamganj District,BD,61,24.88636055,91.33168347,19
813,Rajshahi District,BD,54,24.4175035,88.62803854,19
814,Naogaon District,BD,48,24.8734748,88.73757821,19
815,Noakhali District,BD,47,22.670695,91.33647099,19
816,Feni District,BD,16,23.0170829,91.40786619,19
817,Madaripur District,BD,36,23.2340107,90.14460791,19
818,Barisal District,BD,6,22.7562851,90.41098392,19
819,Lakshmipur District,BD,31,22.82986205,90.83719235,19
820,Okayama Prefecture,JP,33,34.8581334,133.7759256,109
821,Chiba Prefecture,JP,12,35.549399,140.2647303,109
822,Ōita Prefecture,JP,44,33.1819875,131.4270217,109
823,Tokyo,JP,13,35.6828387,139.7594549,109
824,Nara Prefecture,JP,29,34.2963089,135.8816819,109
825,Shizuoka Prefecture,JP,22,34.9332488,138.0955398,109
826,Shimane Prefecture,JP,32,34.9418212,132.537439,109
827,Aichi Prefecture,JP,23,34.9991645,137.254574,109
828,Hiroshima Prefecture,JP,34,34.5666725,132.753565,109
829,Akita Prefecture,JP,5,39.6898802,140.342608,109
830,Ishikawa Prefecture,JP,17,36.9888678,136.8163563,109
831,Hyōgo Prefecture,JP,28,34.914934,134.860666,109
832,Hokkaidō Prefecture,JP,1,43.43395355,142.9514468,109
833,Mie Prefecture,JP,24,34.7339685,136.5154489,109
834,Kyōto Prefecture,JP,26,35.242552,135.454601,109
835,Yamaguchi Prefecture,JP,35,34.2379614,131.5873845,109
836,Tokushima Prefecture,JP,36,33.9196418,134.2509634,109
837,Yamagata Prefecture,JP,6,38.4746705,140.083237,109
838,Toyama Prefecture,JP,16,36.6468015,137.2183531,109
839,Aomori Prefecture,JP,2,40.886943,140.590121,109
840,Kagoshima Prefecture,JP,46,31.521587,130.5474077,109
841,Niigata Prefecture,JP,15,37.6452283,138.7669125,109
842,Kanagawa Prefecture,JP,14,35.4342935,139.374753,109
843,Nagano Prefecture,JP,20,36.1143945,138.0319015,109
844,Wakayama Prefecture,JP,30,33.8070292,135.5930743,109
845,Shiga Prefecture,JP,25,35.247154,136.109385,109
846,Kumamoto Prefecture,JP,43,32.6450475,130.6341345,109
847,Fukushima Prefecture,JP,7,37.3665245,140.2633878,109
848,Fukui Prefecture,JP,18,35.9263502,136.6068127,109
849,Nagasaki Prefecture,JP,42,33.1154683,129.7874339,109
850,Tottori Prefecture,JP,31,35.3555075,133.8678525,109
851,Ibaraki Prefecture,JP,8,36.2869536,140.4703384,109
852,Yamanashi Prefecture,JP,19,35.6399328,138.6380495,109
853,Okinawa Prefecture,JP,47,26.5707754,128.0255901,109
854,Tochigi Prefecture,JP,9,36.6782167,139.8096549,109
855,Miyazaki Prefecture,JP,45,32.097681,131.294542,109
856,Iwate Prefecture,JP,3,39.5713763,141.4253574,109
857,Miyagi Prefecture,JP,4,38.3880155,140.9761025,109
858,Gifu Prefecture,JP,21,35.7867449,137.0460777,109
859,Ōsaka Prefecture,JP,27,34.6198813,135.490357,109
860,Saitama Prefecture,JP,11,35.9754168,139.4160114,109
861,Fukuoka Prefecture,JP,40,33.6251241,130.6180016,109
862,Gunma Prefecture,JP,10,36.52198,139.033483,109
863,Saga Prefecture,JP,41,33.311473,130.1265932,109
864,Kagawa Prefecture,JP,37,34.2480104,134.0586579,109
865,Ehime Prefecture,JP,38,33.6013646,132.8185275,109
866,Ontario,CA,ON,50.000678,-86.000977,39
867,Manitoba,CA,MB,55.001251,-97.001038,39
868,New Brunswick,CA,NB,46.500283,-66.750183,39
869,Yukon,CA,YT,63.000147,-136.002502,39
870,Saskatchewan,CA,SK,55.5321257,-106.1412243,39
871,Prince Edward Island,CA,PE,46.50354535,-63.59551714,39
872,Alberta,CA,AB,55.001251,-115.002136,39
873,Quebec,CA,QC,52.4760892,-71.8258668,39
874,Nova Scotia,CA,NS,45.1960403,-63.1653789,39
875,British Columbia,CA,BC,55.001251,-125.002441,39
876,Nunavut,CA,NU,70.0000073,-90,39
877,Newfoundland and Labrador,CA,NL,53.8217327,-61.2295532,39
878,Northwest Territories,CA,NT,65.0000004,-118,39
879,White Nile,SD,NW,11.9155341,32.7390638,209
880,Red Sea,SD,RS,20.29654545,38.53429714,209
881,Khartoum,SD,KH,15.593325,32.53565,209
882,Sennar,SD,SI,13.5424054,33.6103555,209
883,South Kordofan,SD,KS,11,31,209
884,Kassala,SD,KA,15.41184715,35.65870815,209
885,Al Jazirah,SD,GZ,14.6671537,33.222361,209
886,Al Qadarif,SD,GD,13.5326652,34.71543152,209
887,Blue Nile,SD,NB,11.4878798,37.5875677,209
888,West Darfur,SD,DW,13.4263009,22.6574884,209
889,West Kordofan,SD,GK,14.4169302,29.46836903,209
890,North Darfur,SD,DN,44.0513467,-94.8380398,209
891,River Nile,SD,NR,2.79863,31.3503283,209
892,East Darfur,SD,DE,44.0513467,-94.8380398,209
893,North Kordofan,SD,KN,14.4169302,29.46836903,209
894,South Darfur,SD,DS,44.0513467,-94.8380398,209
895,Northern,SD,NO,33.551698,-112.899879,209
896,Central Darfur,SD,DC,12.12268135,23.34704908,209
897,Khelvachauri Municipality,GE,29,41.56490435,41.66058507,81
898,Senaki Municipality,GE,50,42.30006785,42.1172436,81
899,Tbilisi,GE,TB,41.6934591,44.8014495,81
900,Adjara,GE,AJ,41.67315085,41.91966521,81
901,Autonomous Republic of Abkhazia,GE,AB,42.99671865,41.05447407,81
902,Mtskheta-Mtianeti,GE,MM,42.2276489,44.8569084,81
903,Shida Kartli,GE,SK,41.98868355,43.98112982,81
904,Kvemo Kartli,GE,KK,41.5113299,44.58861653,81
905,Imereti,GE,IM,42.18755995,42.95215541,81
906,Samtskhe-Javakheti,GE,SJ,41.52653525,43.24695704,81
907,Guria,GE,GU,41.9772681,41.98282619,81
908,Samegrelo-Zemo Svaneti,GE,SZ,42.63545205,42.24871385,81
909,Racha-Lechkhumi and Kvemo Svaneti,GE,RL,42.66873065,43.12532719,81
910,Kakheti,GE,KA,41.737352,45.6721781,81
911,Northern Province,SL,N,-10.6251633,31.1792378,198
912,Southern Province,SL,S,-2.6272137,29.6063049,198
913,Western Area,SL,W,8.33460325,-13.06560163,198
914,Eastern Province,SL,E,7.7473677,81.58863541,198
915,Hiran,SO,HI,23.3688175,79.8690551,203
916,Mudug,SO,MU,6.6507279,48.3009945,203
917,Bakool,SO,BK,4.000003,43.999993,203
918,Galguduud,SO,GA,5.0755014,46.8803363,203
919,Sanaag Region,SO,SA,10.605867,47.3636641,203
920,Nugal,SO,NU,8.1666667,49,203
921,Lower Shebelle,SO,SH,1.8427539,44.5937239,203
922,Middle Juba,SO,JD,1.4325937,42.6559939,203
923,Middle Shebelle,SO,SD,3,46,203
924,Lower Juba,SO,JH,0,42,203
925,Awdal Region,SO,AW,10.5000045,43.4999956,203
926,Bay,SO,BY,60.9838761,25.6561814,203
927,Banaadir,SO,BN,2.11667,45.4,203
928,Gedo,SO,GE,3,42,203
929,Togdheer Region,SO,TO,9.3014858,45.4849998,203
930,Bari,SO,BR,41.1257843,16.8620293,203
931,Northern Cape,ZA,NC,-29.573402,21.2051361,204
932,Free State,ZA,FS,-28.7853618,26.4978933,204
933,Limpopo,ZA,LP,-23.4735288,29.3959199,204
934,North West,ZA,NW,51.4785568,7.5533645,204
935,KwaZulu-Natal,ZA,NL,-28.503833,30.8875009,204
936,Gauteng,ZA,GT,-25.9363439,28.0813105,204
937,Mpumalanga,ZA,MP,-26.276849,30.1500153,204
938,Eastern Cape,ZA,EC,-32.2171831,26.6386401,204
939,Western Cape,ZA,WC,-33.546977,20.72753,204
940,Chontales Department,NI,CO,12.083333,-85.4,159
941,Managua Department,NI,MN,-11.5208057,-66.8465332,159
942,Rivas Department,NI,RI,-9.5125498,-77.4890809,159
943,Granada Department,NI,GR,-6.1066744,-77.6282412,159
944,León Department,NI,LE,-10.3587442,-67.1899556,159
945,Estelí Department,NI,ES,13.083333,-86.35,159
946,Boaco Department,NI,BO,12.466667,-85.666667,159
947,Matagalpa Department,NI,MT,12.916667,-85.916667,159
948,Madriz Department,NI,MD,13.4726005,-86.4592091,159
949,Río San Juan Department,NI,SJ,-13.3771891,-75.8753754,159
950,Carazo Department,NI,CA,11.7274729,-86.2158497,159
951,North Caribbean Coast Autonomous Region,NI,AN,13.8394456,-83.9320806,159
952,South Caribbean Coast Autonomous Region,NI,AS,12.1918502,-84.1012861,159
953,Masaya Department,NI,MS,11.9759328,-86.0733498,159
954,Chinandega Department,NI,CI,12.8820062,-87.1422895,159
955,Jinotega Department,NI,JI,14.0507755,-85.1064373,159
956,Karak Governorate,JO,KA,31.16671,35.7499868,111
957,Tafilah Governorate,JO,AT,15.254167,48.333333,111
958,Madaba Governorate,JO,MD,31.7196097,35.7932754,111
959,Aqaba Governorate,JO,AQ,32.35068,35.3497657,111
960,Irbid Governorate,JO,IR,17.283334,44.483334,111
961,Balqa Governorate,JO,BA,31.2067761,29.8805674,111
962,Mafraq Governorate,JO,MA,13.3635135,43.6203695,111
963,Ajloun Governorate,JO,AJ,32.3325584,35.7516844,111
964,Ma'an Governorate,JO,MN,15.9783203,48.8594572,111
965,Amman Governorate,JO,AM,31.5087107,34.4221253,111
966,Jerash Governorate,JO,JA,32.2747237,35.8960954,111
967,Zarqa Governorate,JO,AZ,31.20678005,31.63453384,111
968,Manzini District,SZ,MA,-28.6885124,31.3969168,212
969,Hhohho District,SZ,HH,-26.1022695,31.3640945,212
970,Lubombo District,SZ,LU,-26.55452,31.86191157,212
971,Shiselweni District,SZ,SH,-27.024344,31.3134003,212
972,Al Jahra Governorate,KW,JA,29.32970015,47.6565353,117
973,Hawalli Governorate,KW,HA,29.33767905,48.02442657,117
974,Mubarak Al-Kabeer Governorate,KW,MU,29.20511855,48.07751322,117
975,Al Farwaniyah Governorate,KW,FA,29.31067975,47.92124684,117
976,Capital Governorate,KW,KU,26.4243233,50.47472512,117
977,Al Ahmadi Governorate,KW,AH,14.832088,42.937486,117
978,Luang Prabang Province,LA,LP,19.8887438,102.135898,119
979,Vientiane Prefecture,LA,VT,18.120498,102.6504877,119
980,Vientiane Province,LA,VI,18.6844927,102.07429,119
981,Salavan Province,LA,SL,15.87128,106.3389565,119
982,Attapeu Province,LA,AT,14.8122882,106.8278077,119
983,Xaisomboun Province,LA,XS,18.8631725,103.0344783,119
984,Sekong Province,LA,XE,15.8660419,106.9637782,119
985,Bolikhamsai Province,LA,BL,18.5806594,104.1491594,119
986,Khammouane Province,LA,KH,17.49874,105.3517261,119
987,Phongsaly Province,LA,PH,21.6834928,102.1056616,119
988,Oudomxay Province,LA,OU,20.9349013,102.1228486,119
989,Houaphanh Province,LA,HO,20.2354748,103.6203387,119
990,Savannakhet Province,LA,SV,16.5433697,105.7603533,119
991,Bokeo Province,LA,BK,20.317445,100.3958112,119
992,Luang Namtha Province,LA,LM,21.00549715,101.4066884,119
993,Sainyabuli Province,LA,XA,19.2494811,101.7228286,119
994,Xaisomboun,LA,XN,18.8631725,103.0344783,119
995,Xiangkhouang Province,LA,XI,19.4130479,103.4680126,119
996,Champasak Province,LA,CH,14.8828473,105.8420794,119
997,Talas Region,KG,T,42.4451869,72.14310492,118
998,Batken Region,KG,B,39.8631381,71.61092065,118
999,Naryn Region,KG,N,41.3564711,75.45197268,118
1000,Jalal-Abad Region,KG,J,41.51006745,72.58826095,118
1001,Bishkek,KG,GB,42.8765753,74.6070455,118
1002,Issyk-Kul Region,KG,Y,42.06103415,78.17073232,118
1003,Osh,KG,GO,40.5361899,72.8033618,118
1004,Chuy Region,KG,C,42.5518105,74.62077545,118
1005,Osh Region,KG,O,40.1537925,73.35273504,118
1006,Trøndelag,NO,50,63.87759235,10.19505055,165
1007,Oslo,NO,3,59.9133301,10.7389701,165
1008,Vestfold,NO,7,59.2108224,10.24995689,165
1009,Oppland,NO,5,61.25414815,9.448096734,165
1010,Sør-Trøndelag,NO,16,64.3451806,10.41615587,165
1011,Buskerud,NO,6,60.2497876,8.962786768,165
1012,Nord-Trøndelag,NO,17,64.35059855,10.43147777,165
1013,Svalbard,NO,21,78.7198519,20.3493328,165
1014,Vest-Agder,NO,10,58.4743574,7.071274104,165
1015,Troms,NO,19,69.53110715,19.5296839,165
1016,Finnmark,NO,20,69.9698869,24.76854458,165
1017,Akershus,NO,2,60.03851925,11.32017231,165
1018,Sogn og Fjordane,NO,14,61.53093745,6.102429081,165
1019,Hedmark,NO,4,61.2698616,11.84235798,165
1020,Møre og Romsdal,NO,15,62.8672159,7.537550615,165
1021,Rogaland,NO,11,58.93631375,5.805878643,165
1022,Østfold,NO,1,59.2828515,11.20693999,165
1023,Hordaland,NO,12,60.2570766,6.062497783,165
1024,Telemark,NO,8,59.39626765,8.662660002,165
1025,Nordland,NO,18,67.2756405,13.86236064,165
1026,Jan Mayen,NO,22,70.9897849,-8.472792175,165
1027,Hódmezővásárhely,HU,HV,46.4171344,20.3196068,99
1028,Érd,HU,ER,47.3772949,18.9214718,99
1029,Szeged,HU,SD,46.2546312,20.1486016,99
1030,Nagykanizsa,HU,NK,46.4548261,16.9923923,99
1031,Csongrád County,HU,CS,46.4515164,20.2277606,99
1032,Debrecen,HU,DE,47.531399,21.6259782,99
1033,Székesfehérvár,HU,SF,47.1910169,18.410811,99
1034,Nyíregyháza,HU,NY,47.9557802,21.7167982,99
1035,Somogy County,HU,SO,46.439656,17.6212956,99
1036,Békéscsaba,HU,BC,46.6849789,21.0866918,99
1037,Eger,HU,EG,47.8989887,20.3743665,99
1038,Tolna County,HU,TO,46.4883447,18.5050005,99
1039,Vas County,HU,VA,63.0957722,21.6159187,99
1040,Heves County,HU,HE,47.7884409,20.1714412,99
1041,Győr,HU,GY,47.687609,17.6346815,99
1042,Győr-Moson-Sopron County,HU,GS,47.6610134,17.3796437,99
1043,Jász-Nagykun-Szolnok County,HU,JN,47.2971598,20.453178,99
1044,Fejér County,HU,FE,47.0939434,18.6088562,99
1045,Szabolcs-Szatmár-Bereg County,HU,SZ,48.0297821,22.0040108,99
1046,Zala County,HU,ZA,46.6713343,16.8894692,99
1047,Szolnok,HU,SK,47.1754555,20.1946818,99
1048,Bács-Kiskun County,HU,BK,46.5809294,19.5128532,99
1049,Dunaújváros,HU,DU,46.9670241,18.9397061,99
1050,Zalaegerszeg,HU,ZE,46.8415803,16.8456316,99
1051,Nógrád County,HU,NO,47.9873616,19.5472495,99
1052,Szombathely,HU,SH,47.2291184,16.6187625,99
1053,Pécs,HU,PS,46.0763222,18.2280746,99
1054,Veszprém County,HU,VE,47.0928058,17.9140147,99
1055,Baranya County,HU,BA,45.9714436,18.1669246,99
1056,Kecskemét,HU,KM,46.9080769,19.6928133,99
1057,Sopron,HU,SN,47.6803063,16.5983457,99
1058,Borsod-Abaúj-Zemplén County,HU,BZ,48.2397936,21.1353474,99
1059,Pest County,HU,PE,43.7445765,0.979047,99
1060,Békés County,HU,BE,46.7862993,20.9820736,99
1061,Szekszárd,HU,SS,46.3484884,18.701663,99
1062,Veszprém,HU,VM,47.0928058,17.9140147,99
1063,Hajdú-Bihar County,HU,HB,47.4407848,21.4752281,99
1064,Budapest,HU,BU,47.4983815,19.0404707,99
1065,Miskolc,HU,MI,48.1031503,20.7901985,99
1066,Tatabánya,HU,TB,47.5837788,18.3980308,99
1067,Kaposvár,HU,KV,46.3564692,17.7886886,99
1068,Salgótarján,HU,ST,48.0960676,19.8005642,99
1069,County Tipperary,IE,TA,52.68477435,-7.89808041,105
1070,County Sligo,IE,SO,54.19298605,-8.730542673,105
1071,County Donegal,IE,DL,54.92075415,-7.952385215,105
1072,County Dublin,IE,D,53.40642945,-6.287101474,105
1073,Leinster,IE,L,53.11846495,-6.991818292,105
1074,County Cork,IE,CO,51.91750415,-8.585992214,105
1075,County Monaghan,IE,MN,54.1610664,-6.946364848,105
1076,County Longford,IE,LD,53.7319849,-7.695351399,105
1077,County Kerry,IE,KY,52.14533445,-9.517401093,105
1078,County Offaly,IE,OY,53.1361633,-7.810301874,105
1079,County Galway,IE,G,53.34347575,-8.873367986,105
1080,Munster,IE,M,52.3076216,-8.570897276,105
1081,County Roscommon,IE,RN,53.6982695,-8.218250761,105
1082,County Kildare,IE,KE,53.15436455,-6.818417566,105
1083,County Louth,IE,LH,53.90628485,-6.532050201,105
1084,County Mayo,IE,MO,53.9087056,-9.298304864,105
1085,County Wicklow,IE,WW,52.95814675,-6.381970709,105
1086,Ulster,IE,U,54.5742134,-6.948197869,105
1087,Connacht,IE,C,53.7210634,-8.924054819,105
1088,County Cavan,IE,CN,54.03497495,-7.293702283,105
1089,County Waterford,IE,WD,52.1509131,-7.657798181,105
1090,County Kilkenny,IE,KK,52.5687098,-7.188983092,105
1091,County Clare,IE,CE,52.85725745,-8.937435926,105
1092,County Meath,IE,MH,53.64978435,-6.588529492,105
1093,County Wexford,IE,WX,52.46018745,-6.606515459,105
1094,County Limerick,IE,LK,52.51872675,-8.795847192,105
1095,County Carlow,IE,CW,52.69053605,-6.825018898,105
1096,County Laois,IE,LS,52.9984575,-7.398033775,105
1097,County Westmeath,IE,WH,53.5577902,-7.347855826,105
1098,Djelfa Province,DZ,17,34.671359,3.254037,4
1099,El Oued Province,DZ,39,28.9391527,-8.9444526,4
1100,El Tarf Province,DZ,36,36.754211,8.313475078,4
1101,Oran Province,DZ,31,39.7321236,-0.7552931,4
1102,Naama Province,DZ,45,7.2784684,-11.7975194,4
1103,Annaba Province,DZ,23,36.8982165,7.7549272,4
1104,Bouïra Province,DZ,10,36.3739012,3.9007007,4
1105,Chlef Province,DZ,2,36.164592,1.331499,4
1106,Tiaret Province,DZ,14,35.3661448,1.3194687,4
1107,Tlemcen Province,DZ,13,34.881789,-1.316699,4
1108,Béchar Province,DZ,8,31.6165355,-2.2180053,4
1109,Médéa Province,DZ,26,-11.9543769,-77.0831098,4
1110,Skikda Province,DZ,21,36.879882,6.907485,4
1111,Blida Province,DZ,9,29.98291345,-5.507213118,4
1112,Illizi Province,DZ,33,24.959546,9.228531869,4
1113,Jijel Province,DZ,18,36.8167305,5.771494,4
1114,Biskra,DZ,7,34.8508508,5.7286878,4
1115,Tipasa Province,DZ,42,36.59689825,2.396936415,4
1116,Bordj Bou Arréridj Province,DZ,34,36.0676413,4.745264,4
1117,Tébessa Province,DZ,12,35.4035956,8.1212322,4
1118,Adrar Province,DZ,1,31.6830974,-5.522373,4
1119,Aïn Defla Province,DZ,44,36.2656797,1.9701666,4
1120,Tindouf Province,DZ,37,27.2231241,-7.086304661,4
1121,Constantine Province,DZ,25,-22.2000181,166.4572513,4
1122,Aïn Témouchent Province,DZ,46,35.26665705,-1.149927622,4
1123,Saïda Province,DZ,20,35.0822208,-2.2245756,4
1124,Mascara Province,DZ,29,35.394081,0.1379568,4
1125,Boumerdès Province,DZ,35,36.7560385,3.478740683,4
1126,Khenchela Province,DZ,40,35.430154,7.145711,4
1127,Ghardaïa Province,DZ,47,32.48200735,3.665531273,4
1128,Béjaïa Province,DZ,6,36.7511783,5.0643687,4
1129,El Bayadh Province,DZ,32,33.63785225,1.012203911,4
1130,Relizane Province,DZ,48,35.7381193,0.5547673,4
1131,Tizi Ouzou Province,DZ,15,36.7137843,4.0493919,4
1132,Mila Province,DZ,43,50.7288994,16.5062051,4
1133,Tissemsilt Province,DZ,38,35.604813,1.810476,4
1134,M'Sila Province,DZ,28,34.4444796,-4.176394839,4
1135,Tamanghasset Province,DZ,11,22.2701245,5.809568363,4
1136,Oum El Bouaghi Province,DZ,4,35.8374839,7.156548483,4
1137,Guelma Province,DZ,24,36.465084,7.430647,4
1138,Laghouat Province,DZ,3,33.8063518,2.8808616,4
1139,Ouargla Province,DZ,30,31.94467,5.320958,4
1140,Mostaganem Province,DZ,27,35.928808,0.089978,4
1141,Sétif Province,DZ,19,36.1892751,5.403493,4
1142,Batna Province,DZ,5,35.554404,6.1767453,4
1143,Souk Ahras Province,DZ,41,36.284832,7.9515466,4
1144,Algiers Province,DZ,16,36.7753606,3.0601882,4
1145,Murcia Province,ES,MU,14.3752706,121.0390405,207
1146,Burgos Province,ES,BU,15.8333333,120.875,207
1147,Salamanca Province,ES,SA,-12.0774698,-76.9842587,207
1148,Araba / Álava,ES,VI,42.84431715,-2.682203239,207
1149,Madrid Province,ES,M,42.6863818,-2.2928836,207
1150,Ciudad Real Province,ES,CR,14.7715687,121.0946761,207
1151,Almería Province,ES,AL,36.6216362,-6.3623058,207
1152,Valencia Province,ES,V,39.4699014,-0.3759513,207
1153,Badajoz Province,ES,BA,38.8780585,-6.9702048,207
1154,Pontevedra Province,ES,PO,-12.0849425,-77.04380252,207
1155,Seville Province,ES,SE,14.2822863,121.0983277,207
1156,Alicante Province,ES,A,38.353738,-0.4901846,207
1157,Palencia Province,ES,P,42.0108856,-4.5328735,207
1158,Community of Madrid,ES,MD,40.5248319,-3.771562775,207
1159,Melilla,ES,ML,35.2919028,-2.9407146,207
1160,Province of Asturias,ES,O,-12.07139435,-77.0659058,207
1161,Zamora Province,ES,ZA,14.7354172,120.9546272,207
1162,Zaragoza Province,ES,Z,15.4475833,120.7935538,207
1163,Huesca Province,ES,HU,39.2183325,-0.9501824,207
1164,Tarragona Province,ES,T,14.2855835,121.1004656,207
1165,Toledo Province,ES,TO,-12.1858768,-76.9381663,207
1166,Las Palmas Province,ES,GC,-12.2262196,-76.8899162,207
1167,Galicia,ES,GA,42.61946,-7.863112,207
1168,Albacete Province,ES,AB,14.7627034,120.9622653,207
1169,Cuenca Province,ES,CU,42.4487244,-1.8922078,207
1170,Cantabria,ES,S,43.135837,-4.263632678,207
1171,La Rioja,ES,RI,-29.9729781,-67.0487944,207
1172,Guadalajara Province,ES,GU,-12.0543326,-76.9396876,207
1173,Ourense Province,ES,OR,42.3436415,-7.8674242,207
1174,Balearic Islands,ES,PM,39.5491347,3.3682465,207
1175,Valencian Community,ES,VC,39.6819591,-0.7654406,207
1176,Region of Murcia,ES,MC,38.0634325,-1.671800491,207
1177,Aragon,ES,AR,41.3787291,-0.7639373,207
1178,Girona Province,ES,GI,38.7875653,-0.0878191,207
1179,A Coruña Province,ES,C,43.3712091,-8.3958768,207
1180,Barcelona Province,ES,B,-1.935834,-80.6870986,207
1181,Jaén Province,ES,J,35.174259,46.616195,207
1182,Teruel Province,ES,TE,-12.1077286,-77.0308504,207
1183,Valladolid Province,ES,VA,38.35933,-0.47964,207
1184,Castile and León,ES,CL,41.8037172,-4.7471726,207
1185,Canary Islands,ES,CN,28.2935785,-16.62144712,207
1186,Biscay,ES,BI,43.238482,-2.85163164,207
1187,Lugo Province,ES,LU,43.0805539,-7.6703913,207
1188,Málaga Province,ES,MA,38.6455998,0.0478366,207
1189,Province of Ávila,ES,AV,33.5381331,-7.7779882,207
1190,Extremadura,ES,EX,39.1748426,-6.1529891,207
1191,Basque Country,ES,PV,42.9911816,-2.5543023,207
1192,Segovia Province,ES,SG,14.3734771,121.0391446,207
1193,Andalusia,ES,AN,37.3399964,-4.5811614,207
1194,Granada Province,ES,GR,43.3359138,-4.4337799,207
1195,Lleida Province,ES,L,41.6147605,0.6267842,207
1196,Cáceres Province,ES,CC,-12.0065385,-77.0964256,207
1197,Córdoba Province,ES,CO,36.6213656,-6.3661429,207
1198,Santa Cruz de Tenerife Province,ES,TF,28.469648,-16.2540884,207
1199,Huelva Province,ES,H,36.4184082,-5.9136115,207
1200,León Province,ES,LE,36.2648001,-6.0711292,207
1201,Cádiz Province,ES,CA,36.5298292,-6.2925679,207
1202,Gipuzkoa,ES,SS,43.1445278,-2.203795549,207
1203,Catalonia,ES,CT,41.8523094,1.5745043,207
1204,Navarre,ES,NC,42.61254875,-1.830787683,207
1205,Castile-La Mancha,ES,CM,39.4177902,-2.6232332,207
1206,Ceuta,ES,CE,35.888361,-5.304138,207
1207,Castellón Province,ES,CS,42.7116655,-1.1084148,207
1208,Soria Province,ES,SO,42.7158582,-1.5735456,207
1209,Guanacaste Province,CR,G,10.9408848,-84.8160137,53
1210,Puntarenas Province,CR,P,9.9780257,-84.831251,53
1211,Provincia de Cartago,CR,C,9.7889864,-83.90476162,53
1212,Heredia Province,CR,H,-27.4721744,-58.7890926,53
1213,Limón Province,CR,L,10.3787478,-83.5848401,53
1214,San José Province,CR,SJ,-11.544697,-77.1836021,53
1215,Alajuela Province,CR,A,10.0173148,-84.2132869,53
1216,Brunei-Muara District,BN,BM,4.92848605,114.913681,33
1217,Belait District,BN,BE,4.382005,114.519843,33
1218,Temburong District,BN,TE,4.61204585,115.1680893,33
1219,Tutong District,BN,TU,4.6181676,114.6706754,33
1220,Saint Philip,BB,10,13.13092205,-59.46862904,20
1221,Saint Lucy,BB,7,13.30422945,-59.61431954,20
1222,Saint Peter,BB,9,13.2614031,-59.61996712,20
1223,Saint Joseph,BB,6,13.19763575,-59.54542302,20
1224,Saint James,BB,4,48.5250529,-1.328087619,20
1225,Saint Thomas,BB,11,18.34290815,-64.9188997,20
1226,Saint George,BB,3,37.104153,-113.5841313,20
1227,Saint John,BB,5,45.278752,-66.058044,20
1228,Christ Church,BB,1,51.4472726,-0.4061905,20
1229,Saint Andrew,BB,2,13.24890535,-59.57571419,20
1230,Saint Michael,BB,8,13.1180295,-59.60098579,20
1231,Ta'izz Governorate,YE,TA,13.4523327,43.7379796,245
1232,Sana'a,YE,SA,15.342101,44.2005197,245
1233,Ibb Governorate,YE,IB,14.1044029,44.2029878,245
1234,Ma'rib Governorate,YE,MA,15.4157146,45.366667,245
1235,Al Mahwit Governorate,YE,MW,15.4020851,43.5052415,245
1236,Sana'a Governorate,YE,SN,15.6236042,44.3538849,245
1237,Abyan Governorate,YE,AB,13.5686755,46.1329989,245
1238,Hadhramaut Governorate,YE,HD,17.3692151,49.2555116,245
1239,Socotra Governorate,YE,SU,12.4072865,52.8580597,245
1240,Al Bayda' Governorate,YE,BA,14.3264725,45.3802949,245
1241,Al Hudaydah Governorate,YE,HU,15.0446117,43.0828921,245
1242,'Adan Governorate,YE,AD,12.789585,45.028504,245
1243,Al Jawf Governorate,YE,JA,16.6130661,45.6165877,245
1244,Hajjah Governorate,YE,HJ,16.1178937,43.0382298,245
1245,Lahij Governorate,YE,LA,13.179848,44.5846554,245
1246,Dhamar Governorate,YE,DH,14.6842501,44.3575749,245
1247,Shabwah Governorate,YE,SH,14.7981052,46.8088288,245
1248,Raymah Governorate,YE,RA,14.6875552,43.6648264,245
1249,Saada Governorate,YE,SD,16.9409324,43.7630261,245
1250,'Amran Governorate,YE,AM,16.2999631,43.868599,245
1251,Al Mahrah Governorate,YE,MR,16.6406645,51.6767201,245
1252,Sangha-Mbaéré,CF,SE,3.6754895,16.3246915,42
1253,Nana-Grébizi Economic Prefecture,CF,KB,7.1848607,19.3783206,42
1254,Ouham Prefecture,CF,AC,6.9855657,15.6421663,42
1255,Ombella-M'Poko Prefecture,CF,MP,5.1188825,18.4276047,42
1256,Lobaye Prefecture,CF,LB,4.3525981,17.4795173,42
1257,Mambéré-Kadéï,CF,HS,4.5662762,15.8671403,42
1258,Haut-Mbomou Prefecture,CF,HM,6.2537134,25.4733554,42
1259,Bamingui-Bangoran Prefecture,CF,BB,8.2733455,20.7122465,42
1260,Nana-Mambéré Prefecture,CF,NM,5.6932135,15.2194808,42
1261,Vakaga Prefecture,CF,VK,9.5113296,22.2384017,42
1262,Bangui,CF,BGF,4.3907153,18.5509126,42
1263,Kémo Prefecture,CF,KG,35.0378072,103.0390661,42
1264,Basse-Kotto Prefecture,CF,BK,4.8719319,21.2845025,42
1265,Ouaka Prefecture,CF,UK,5.754531,20.6648896,42
1266,Mbomou Prefecture,CF,MB,4.7362455,22.8190636,42
1267,Ouham-Pendé Prefecture,CF,OP,6.9855657,15.6421663,42
1268,Haute-Kotto Prefecture,CF,HK,7.7964379,23.3823545,42
1269,Romblon,PH,ROM,12.5,122.25,174
1270,Bukidnon,PH,BUK,8.022778,124.998611,174
1271,Rizal,PH,RIZ,14.65,121.25,174
1272,Bohol,PH,BOH,9.833333,124.1615579,174
1273,Quirino,PH,QUI,16.283333,121.583333,174
1274,Biliran,PH,BIL,11.6,124.49,174
1275,Quezon,PH,QUE,13.9,122,174
1276,Siquijor,PH,SIG,9.2040074,123.5965585,174
1277,Sarangani,PH,SAR,5.874722,125.275278,174
1278,Bulacan,PH,BUL,15,121.083333,174
1279,Cagayan,PH,CAG,18,121.833333,174
1280,South Cotabato,PH,SCO,6.166667,125,174
1281,Sorsogon,PH,SOR,12.833333,123.916667,174
1282,Sultan Kudarat,PH,SUK,6.55,124.283333,174
1283,Camarines Norte,PH,CAN,14.166667,122.75,174
1284,Southern Leyte,PH,SLE,10.3475099,125.1250896,174
1285,Camiguin,PH,CAM,9.166667,124.75,174
1286,Surigao del Norte,PH,SUN,9.666667,125.633333,174
1287,Camarines Sur,PH,CAS,13.666175,123.3265172,174
1288,Sulu,PH,SLU,6,121,174
1289,Davao Oriental,PH,DAO,7.166667,126.333333,174
1290,Eastern Samar,PH,EAS,11.73,125.37,174
1291,Dinagat Islands,PH,DIN,10.1577932,125.5851827,174
1292,Capiz,PH,CAP,11.3852987,122.6377315,174
1293,Tawi-Tawi,PH,TAW,5.2057,120.0265,174
1294,Calabarzon,PH,40,14.16441485,121.3536524,174
1295,Tarlac,PH,TAR,15.5277375,120.4192688,174
1296,Surigao del Sur,PH,SUR,8.84,126.15,174
1297,Zambales,PH,ZMB,15.23,120.12,174
1298,Ilocos Norte,PH,ILN,18.166667,120.75,174
1299,Mimaropa,PH,41,13.0152201,121.4064183,174
1300,Ifugao,PH,IFU,16.833333,121.166667,174
1301,Catanduanes,PH,CAT,13.833333,124.25,174
1302,Zamboanga del Norte,PH,ZAN,8,122.666667,174
1303,Guimaras,PH,GUI,10.5730629,122.6238907,174
1304,Bicol Region,PH,5,13.100588,123.5231331,174
1305,Western Visayas,PH,6,10.67295935,122.7229909,174
1306,Cebu,PH,CEB,10.45,123.84,174
1307,Cavite,PH,CAV,14.25,120.833333,174
1308,Central Visayas,PH,7,10.264054,123.869396,174
1309,Davao Occidental,PH,DVO,6.27,125.6,174
1310,Soccsksargen,PH,12,6.594076,124.5381374,174
1311,Compostela Valley,PH,COM,7.45,126.07,174
1312,Kalinga,PH,KAL,17.46,121.31,174
1313,Isabela,PH,ISA,17,122,174
1314,Caraga,PH,13,9.2471392,125.8557819,174
1315,Iloilo,PH,ILI,10.9534597,122.5756326,174
1316,Autonomous Region in Muslim Mindanao,PH,14,6.9568313,124.2421597,174
1317,La Union,PH,LUN,16.5735957,120.4089899,174
1318,Davao del Sur,PH,DAS,6.6983658,125.3612135,174
1319,Davao del Norte,PH,DAV,7.347511,125.6663821,174
1320,Cotabato,PH,NCO,7.27,124.86,174
1321,Ilocos Sur,PH,ILS,17.2,120.5,174
1322,Eastern Visayas,PH,8,11.32782725,124.9975561,174
1323,Agusan del Norte,PH,AGN,8.92,125.46,174
1324,Abra,PH,ABR,17.583333,120.75,174
1325,Zamboanga Peninsula,PH,9,7.77301775,122.7560048,174
1326,Agusan del Sur,PH,AGS,8.36,125.71,174
1327,Lanao del Norte,PH,LAN,8.016111,124.045278,174
1328,Laguna,PH,LAG,14.1696476,121.3336526,174
1329,Marinduque,PH,MAD,13.416667,121.95,174
1330,Maguindanao,PH,MAG,7.02,124.26,174
1331,Aklan,PH,AKL,11.6297894,122.2481177,174
1332,Leyte,PH,LEY,10.7838163,124.8923649,174
1333,Lanao del Sur,PH,LAS,7.916667,124.333333,174
1334,Apayao,PH,APA,18.12,121.19,174
1335,Cordillera Administrative Region,PH,15,17.359748,121.0752677,174
1336,Antique,PH,ANT,11.1705066,122.083333,174
1337,Albay,PH,ALB,13.216667,123.55,174
1338,Masbate,PH,MAS,12.166667,123.583333,174
1339,Northern Mindanao,PH,10,8.40488525,124.6871961,174
1340,Davao Region,PH,11,6.610975,125.4298652,174
1341,Aurora,PH,AUR,41.7571701,-88.3147539,174
1342,Cagayan Valley,PH,2,17.677229,121.8890298,174
1343,Misamis Occidental,PH,MSC,8.333333,123.7,174
1344,Bataan,PH,BAN,14.666667,120.416667,174
1345,Central Luzon,PH,3,15.39091185,120.6856995,174
1346,Basilan,PH,BAS,6.578645,122.034922,174
1347,Metro Manila,PH,0,14.5736108,121.0329706,174
1348,Misamis Oriental,PH,MSR,8.72,124.84,174
1349,Northern Samar,PH,NSA,12.42,124.81,174
1350,Negros Oriental,PH,NER,9.75,123,174
1351,Negros Occidental,PH,NEC,10.416667,123,174
1352,Batanes,PH,BTN,20.6442465,121.8939456,174
1353,Mountain Province,PH,MOU,17.0922325,120.9737242,174
1354,Oriental Mindoro,PH,MDR,13.2,121.2,174
1355,Ilocos Region,PH,1,17.200662,120.4700086,174
1356,Occidental Mindoro,PH,MDC,13.0000021,120.9166666,174
1357,Zamboanga del Sur,PH,ZAS,7.9043,123.3194,174
1358,Nueva Vizcaya,PH,NUV,16.35,121.13,174
1359,Batangas,PH,BTG,13.916453,121.0864884,174
1360,Nueva Ecija,PH,NUE,15.583333,121,174
1361,Palawan,PH,PLW,10,118.75,174
1362,Zamboanga Sibugay,PH,ZSI,7.7877097,122.5744217,174
1363,Benguet,PH,BEN,16.5,120.666667,174
1364,Pangasinan,PH,PAN,15.916667,120.333333,174
1365,Pampanga,PH,PAM,15.0251068,120.6870474,174
1366,Northern District,IL,Z,16.94717585,96.11330994,106
1367,Central District,IL,M,30.70869465,50.89482112,106
1368,Southern District,IL,D,22.2192627,114.2252298,106
1369,Haifa District,IL,HA,32.62574995,34.98251402,106
1370,Jerusalem District,IL,JM,31.74282535,35.06406904,106
1371,Tel Aviv District,IL,TA,32.0956658,34.80625682,106
1372,Limburg,BE,VLI,51.2008195,5.9041916,22
1373,Flanders,BE,VLG,51.0962462,4.179851289,22
1374,Flemish Brabant,BE,VBR,50.8686516,4.788610831,22
1375,Hainaut,BE,WHT,50.3624612,4.125173179,22
1376,Brussels-Capital Region,BE,BRU,50.83879505,4.375304132,22
1377,East Flanders,BE,VOV,51.0375423,3.811783011,22
1378,Namur,BE,WNA,50.4665284,4.8661892,22
1379,Luxembourg,BE,WLX,49.8158683,6.1296751,22
1380,Wallonia,BE,WAL,50.1545331,5.399182167,22
1381,Antwerp,BE,VAN,51.2211097,4.3997081,22
1382,Walloon Brabant,BE,WBR,50.66636025,4.54995725,22
1383,West Flanders,BE,VWV,51.04047465,2.999439363,22
1384,Liège,BE,WLG,50.6451381,5.5734203,22
1385,Darién Province,PA,5,41.0787079,-73.4692873,170
1386,Colón Province,PA,3,-17.9971368,-70.2507234,170
1387,Coclé Province,PA,2,8.4177813,-80.41902571,170
1388,Guna Yala,PA,KY,9.20030225,-77.93252243,170
1389,Herrera Province,PA,6,39.8868419,-0.4083326,170
1390,Los Santos Province,PA,7,43.2307693,-4.1110416,170
1391,Ngöbe-Buglé Comarca,PA,NB,8.6595833,-81.7787021,170
1392,Veraguas Province,PA,9,8.8688212,-80.9076255,170
1393,Bocas del Toro Province,PA,1,9.484668,-82.8815329,170
1394,Panamá Oeste Province,PA,10,8.880278,-79.783333,170
1395,Panamá Province,PA,8,6.7566659,81.8045802,170
1396,Emberá-Wounaan Comarca,PA,EM,8.4030283,-77.58143596,170
1397,Chiriquí Province,PA,4,8.3973942,-82.3229129,170
1398,Howland Island,US,UM-84,0.8075145,-176.61687,233
1399,Delaware,US,DE,38.6920451,-75.4013315,233
1400,Alaska,US,AK,64.4459613,-149.680909,233
1401,Maryland,US,MD,39.5162234,-76.9382069,233
1402,Baker Island,US,UM-81,0.19542075,-176.470759,233
1403,Kingman Reef,US,UM-89,6.41581875,-162.4386964,233
1404,New Hampshire,US,NH,43.4849133,-71.6553992,233
1405,Wake Island,US,UM-79,19.2898248,166.6492645,233
1406,Kansas,US,KS,38.27312,-98.5821872,233
1407,Texas,US,TX,31.8160381,-99.5120986,233
1408,Nebraska,US,NE,41.7370229,-99.5873816,233
1409,Vermont,US,VT,44.5990718,-72.5002608,233
1410,Jarvis Island,US,UM-86,-0.3722806,-159.9973612,233
1411,Hawaii,US,HI,21.2160437,-157.975203,233
1412,Guam,US,GU,13.4501257,144.757551,233
1413,United States Virgin Islands,US,VI,17.789187,-64.7080574,233
1414,Utah,US,UT,39.4225192,-111.7143584,233
1415,Oregon,US,OR,43.9792797,-120.737257,233
1416,California,US,CA,36.7014631,-118.7559974,233
1417,New Jersey,US,NJ,40.0757384,-74.4041622,233
1418,North Dakota,US,ND,47.6201461,-100.540737,233
1419,Kentucky,US,KY,37.5726028,-85.1551411,233
1420,Minnesota,US,MN,45.9896587,-94.6113288,233
1421,Oklahoma,US,OK,34.9550817,-97.2684063,233
1422,Pennsylvania,US,PA,40.9699889,-77.7278831,233
1423,New Mexico,US,NM,34.5708167,-105.993007,233
1424,American Samoa,US,AS,-14.30063095,-170.6959748,233
1425,Illinois,US,IL,40.0796606,-89.4337288,233
1426,Michigan,US,MI,43.6211955,-84.6824346,233
1427,Virginia,US,VA,37.1232245,-78.4927721,233
1428,Johnston Atoll,US,UM-67,16.75244615,-169.5107016,233
1429,West Virginia,US,WV,38.4758406,-80.8408415,233
1430,Mississippi,US,MS,32.9715645,-89.7348497,233
1431,Northern Mariana Islands,US,MP,14.1490205,145.2134525,233
1432,United States Minor Outlying Islands,US,UM,6.4295092,-162.40731,233
1433,Massachusetts,US,MA,42.3788774,-72.032366,233
1434,Arizona,US,AZ,34.395342,-111.7632755,233
1435,Connecticut,US,CT,41.6500201,-72.7342163,233
1436,Florida,US,FL,27.7567667,-81.4639835,233
1437,District of Columbia,US,DC,38.89366125,-76.98788325,233
1438,Midway Atoll,US,UM-71,28.2417536,-177.3754308,233
1439,Navassa Island,US,UM-76,18.408351,-75.01443677,233
1440,Indiana,US,IN,40.3270127,-86.1746933,233
1441,Wisconsin,US,WI,44.4308975,-89.6884637,233
1442,Wyoming,US,WY,43.1700264,-107.5685348,233
1443,South Carolina,US,SC,33.6874388,-80.4363743,233
1444,Arkansas,US,AR,35.2048883,-92.4479108,233
1445,South Dakota,US,SD,44.6471761,-100.348761,233
1446,Montana,US,MT,47.3752671,-109.6387579,233
1447,North Carolina,US,NC,35.6729639,-79.0392919,233
1448,Palmyra Atoll,US,UM-95,5.882204,-162.0748745,233
1449,Puerto Rico,US,PR,18.22141715,-66.41328185,233
1450,Colorado,US,CO,38.7251776,-105.6077167,233
1451,Missouri,US,MO,38.7604815,-92.5617875,233
1452,New York,US,NY,40.7127281,-74.0060152,233
1453,Maine,US,ME,45.709097,-68.8590201,233
1454,Tennessee,US,TN,35.7730076,-86.2820081,233
1455,Georgia,US,GA,41.6809707,44.0287382,233
1456,Alabama,US,AL,33.2588817,-86.8295337,233
1457,Louisiana,US,LA,30.8703881,-92.007126,233
1458,Nevada,US,NV,39.5158825,-116.8537227,233
1459,Iowa,US,IA,41.9216734,-93.3122705,233
1460,Idaho,US,ID,43.6447642,-114.0154071,233
1461,Rhode Island,US,RI,41.7962409,-71.5992372,233
1462,Washington,US,WA,38.8948932,-77.0365529,233
1463,Shinyanga Region,TZ,22,-3.4224237,32.7641011,218
1464,Simiyu Region,TZ,30,-2.8055913,33.9849436,218
1465,Kagera Region,TZ,5,-3.4224237,32.7641011,218
1466,Dodoma Region,TZ,3,-6.1351118,35.9967095,218
1467,Kilimanjaro Region,TZ,9,-33.3499506,-70.7457167,218
1468,Mara Region,TZ,13,48.450112,19.759385,218
1469,Tabora Region,TZ,24,16.4244903,120.5973207,218
1470,Morogoro Region,TZ,16,-6.8277556,37.6591144,218
1471,Zanzibar Central/South Region,TZ,11,-6.19684755,39.30694145,218
1472,South Pemba Region,TZ,10,-13.8119492,34.5067436,218
1473,Zanzibar North Region,TZ,7,50.5342507,14.1406274,218
1474,Singida Region,TZ,23,-6.7453352,34.1531947,218
1475,Zanzibar Urban/West Region,TZ,15,-6.2298136,39.2583293,218
1476,Mtwara Region,TZ,17,-10.727462,39.1543677,218
1477,Rukwa Region,TZ,20,-6.9653685,31.2626366,218
1478,Kigoma Region,TZ,8,1.15,31.166667,218
1479,Mwanza Region,TZ,18,-15.61360315,34.51465953,218
1480,Njombe Region,TZ,29,-8.9147528,34.6856509,218
1481,Geita Region,TZ,27,64.6965981,-20.7549548,218
1482,Katavi Region,TZ,28,-6.9653685,31.2626366,218
1483,Lindi Region,TZ,12,54.3571626,21.397646,218
1484,Manyara Region,TZ,26,-4.2145036,35.7180357,218
1485,Pwani Region,TZ,19,-7.3237714,38.8205454,218
1486,Ruvuma Region,TZ,21,5.610419,-0.2419276,218
1487,Tanga Region,TZ,25,33.880663,130.8802661,218
1488,North Pemba Region,TZ,6,-13.8119492,34.5067436,218
1489,Iringa Region,TZ,4,1.266667,33.016667,218
1490,Dar es Salaam Region,TZ,2,-22.550746,17.0179009,218
1491,Arusha Region,TZ,1,-22.5618932,17.0109871,218
1492,Eastern Finland Province,FI,IS,62,27,74
1493,Tavastia Proper,FI,6,60.93769605,24.15319201,74
1494,Central Ostrobothnia,FI,7,62.96867215,21.36251426,74
1495,Southern Savonia,FI,4,61.90173715,27.98820444,74
1496,Kainuu,FI,5,64.59873065,28.30019885,74
1497,South Karelia,FI,2,61.26646905,28.40546254,74
1498,Southern Ostrobothnia,FI,3,62.9433099,23.5285267,74
1499,Oulu Province,FI,OL,65.0118734,25.4716809,74
1500,Lapland,FI,LL,67.69291045,26.72820448,74
1501,Satakunta,FI,17,61.59201665,21.77994449,74
1502,Päijänne Tavastia,FI,16,50.843746,4.3691286,74
1503,Northern Savonia,FI,15,63.0883598,27.53039484,74
1504,North Karelia,FI,13,62.8014085,30.2134553,74
1505,Northern Ostrobothnia,FI,14,64.9521512,25.69705227,74
1506,Pirkanmaa,FI,11,61.7171466,23.7157134,74
1507,Finland Proper,FI,19,60.3059485,22.41442603,74
1508,Ostrobothnia,FI,12,62.96867215,21.36251426,74
1509,Åland Islands,FI,1,60.2166218,19.9438638,74
1510,Uusimaa,FI,18,60.2246684,25.12726308,74
1511,Central Finland,FI,8,62.53101395,25.50568325,74
1512,Kymenlaakso,FI,9,60.7318529,27.08288397,74
1513,Canton of Diekirch,LU,DI,49.8690898,6.1600549,127
1514,Luxembourg District,LU,L,14.4541273,120.9949698,127
1515,Canton of Echternach,LU,EC,49.8120961,6.4214859,127
1516,Canton of Redange,LU,RD,49.7650714,5.8914033,127
1517,Canton of Esch-sur-Alzette,LU,ES,49.4959628,5.9850306,127
1518,Canton of Capellen,LU,CA,49.645432,5.977324704,127
1519,Canton of Remich,LU,RM,49.5442267,6.3676062,127
1520,Grevenmacher District,LU,G,49.679313,6.4430979,127
1521,Canton of Clervaux,LU,CL,50.0547912,6.0275511,127
1522,Canton of Mersch,LU,ME,49.7506746,6.1066591,127
1523,Canton of Vianden,LU,VD,49.9336976,6.2066715,127
1524,Diekirch District,LU,D,49.867172,6.1596362,127
1525,Canton of Grevenmacher,LU,GR,49.679313,6.4430979,127
1526,Canton of Wiltz,LU,WI,50.0037413,5.8394185,127
1527,Canton of Luxembourg,LU,LU,49.6112768,6.129799,127
1528,Region Zealand,DK,85,55.48635875,11.68666712,59
1529,Region of Southern Denmark,DK,83,55.3784583,9.131927668,59
1530,Capital Region of Denmark,DK,84,55.86170985,12.31374348,59
1531,Central Denmark Region,DK,82,56.23564835,9.234602772,59
1532,North Denmark Region,DK,81,56.8152793,9.727330773,59
1533,Gävleborg County,SE,X,61.26138005,16.69871011,213
1534,Dalarna County,SE,W,61.06037785,14.21508732,213
1535,Värmland County,SE,S,59.89054465,13.29492481,213
1536,Östergötland County,SE,E,58.36782395,16.05042857,213
1537,Blekinge,SE,K,56.12401225,15.40218414,213
1538,Norrbotten County,SE,BD,66.9798719,20.00030081,213
1539,Örebro County,SE,T,59.3804788,14.98895412,213
1540,Södermanland County,SE,D,58.96382725,16.72993481,213
1541,Skåne County,SE,M,55.84694095,13.63583121,213
1542,Kronoberg County,SE,G,56.80067805,14.411161,213
1543,Västerbotten County,SE,AC,64.7196392,18.56970834,213
1544,Kalmar County,SE,H,57.02784235,16.57526801,213
1545,Uppsala County,SE,C,60.1486,17.6249561,213
1546,Gotland County,SE,I,57.6783173,18.63846359,213
1547,Västra Götaland County,SE,O,58.20302695,12.64973198,213
1548,Halland County,SE,N,56.96045925,12.80732581,213
1549,Västmanland County,SE,U,59.6965639,16.18465359,213
1550,Jönköping County,SE,F,57.535426,14.6411816,213
1551,Stockholm County,SE,AB,59.3901513,18.66427492,213
1552,Västernorrland County,SE,Y,63.05896925,18.10586826,213
1553,Plungė District Municipality,LT,35,55.7583217,21.5408672,126
1554,Šiauliai District Municipality,LT,44,55.4876666,21.6269823,126
1555,Jurbarkas District Municipality,LT,12,55.057322,23.4678381,126
1556,Kaunas County,LT,KU,55.0163259,24.08575783,126
1557,Mažeikiai District Municipality,LT,26,56.3092439,22.341468,126
1558,Panevėžys County,LT,PN,55.9156048,25.03115989,126
1559,Elektrėnai municipality,LT,8,54.76343995,24.76913387,126
1560,Švenčionys District Municipality,LT,49,55.1028098,26.0071855,126
1561,Akmenė District Municipality,LT,1,56.2123268,22.7694986,126
1562,Ignalina District Municipality,LT,9,55.4090342,26.3284893,126
1563,Neringa Municipality,LT,28,55.6877192,21.1761222,126
1564,Visaginas Municipality,LT,59,55.594118,26.4307954,126
1565,Kaunas District Municipality,LT,16,54.9616808,23.77403175,126
1566,Biržai District Municipality,LT,6,56.1660422,24.8555606,126
1567,Jonava District Municipality,LT,10,55.1405549,24.3381715,126
1568,Radviliškis District Municipality,LT,37,55.624255,23.5944536,126
1569,Telšiai County,LT,TE,56.01309745,22.13666763,126
1570,Marijampolė County,LT,MR,54.6792304,23.20046808,126
1571,Kretinga District Municipality,LT,22,55.9686093,21.36040592,126
1572,Tauragė District Municipality,LT,50,55.2801858,22.2557083,126
1573,Tauragė County,LT,TA,55.35608325,22.40487924,126
1574,Alytus County,LT,AL,54.22953895,24.07911991,126
1575,Kazlų Rūda municipality,LT,17,54.7807526,23.4840243,126
1576,Šakiai District Municipality,LT,41,54.5418358,22.7899773,126
1577,Šalčininkai District Municipality,LT,42,54.309767,25.387564,126
1578,Prienai District Municipality,LT,36,54.63320445,24.21393891,126
1579,Druskininkai municipality,LT,7,54.1907395,24.0176115,126
1580,Kaunas City Municipality,LT,15,54.89827165,23.90645586,126
1581,Joniškis District Municipality,LT,11,56.236073,23.6136579,126
1582,Molėtai District Municipality,LT,27,55.2265309,25.4180011,126
1583,Kaišiadorys District Municipality,LT,13,54.8506304,24.3783369,126
1584,Kėdainiai District Municipality,LT,18,55.1390282,23.7238077,126
1585,Kupiškis District Municipality,LT,23,55.838839,24.980148,126
1586,Šiauliai County,LT,SA,55.93985585,23.39385766,126
1587,Raseiniai District Municipality,LT,38,55.3819499,23.1156129,126
1588,Palanga City Municipality,LT,31,55.7013759,21.2051554,126
1589,Panevėžys City Municipality,LT,32,55.0465876,23.8205478,126
1590,Rietavas municipality,LT,39,55.7021719,21.9986564,126
1591,Kalvarija municipality,LT,14,54.3706308,23.20008314,126
1592,Vilnius District Municipality,LT,58,54.70163965,25.28539624,126
1593,Trakai District Municipality,LT,52,54.4494054,24.3502466,126
1594,Širvintos District Municipality,LT,47,54.5315605,22.9290569,126
1595,Pakruojis District Municipality,LT,30,55.9825873,23.8584483,126
1596,Ukmergė District Municipality,LT,53,55.2392,24.7566181,126
1597,Klaipeda City Municipality,LT,20,55.70426435,21.14979747,126
1598,Utena District Municipality,LT,54,55.5084614,25.6832642,126
1599,Alytus District Municipality,LT,3,54.36445725,23.81228564,126
1600,Klaipėda County,LT,KL,55.7826477,21.17034319,126
1601,Vilnius County,LT,VL,54.82269205,25.249534,126
1602,Varėna District Municipality,LT,55,54.1445634,24.4102985,126
1603,Birštonas Municipality,LT,5,54.56908215,24.05781495,126
1604,Klaipėda District Municipality,LT,21,55.6794723,21.51462668,126
1605,Alytus City Municipality,LT,2,54.3924677,24.1087607,126
1606,Vilnius City Municipality,LT,57,54.70093735,25.32210435,126
1607,Šilutė District Municipality,LT,46,55.3750109,21.54039776,126
1608,Telšiai District Municipality,LT,51,55.9175215,22.345184,126
1609,Šiauliai City Municipality,LT,43,55.4876666,21.6269823,126
1610,Marijampolė Municipality,LT,25,54.5355395,23.4816338,126
1611,Lazdijai District Municipality,LT,24,54.179033,23.5896493,126
1612,Pagėgiai municipality,LT,29,55.172132,21.9683614,126
1613,Šilalė District Municipality,LT,45,55.3551032,21.7799562,126
1614,Panevėžys District Municipality,LT,33,55.0465876,23.8205478,126
1615,Rokiškis District Municipality,LT,40,55.1175733,23.8756234,126
1616,Pasvalys District Municipality,LT,34,56.0604619,24.396291,126
1617,Skuodas District Municipality,LT,48,56.2702169,21.5214331,126
1618,Kelmė District Municipality,LT,19,55.6266352,22.878172,126
1619,Zarasai District Municipality,LT,60,55.7093481,26.059066,126
1620,Vilkaviškis District Municipality,LT,56,54.57707155,22.94190428,126
1621,Utena County,LT,UT,55.4878625,25.63833573,126
1622,Opole Voivodeship,PL,OP,50.8918612,17.9321175,176
1623,Silesian Voivodeship,PL,SL,50.5687422,19.2343995,176
1624,Pomeranian Voivodeship,PL,PM,54.24556,18.1099,176
1625,Kuyavian-Pomeranian Voivodeship,PL,KP,53.3220016,18.3392939,176
1626,Podkarpackie Voivodeship,PL,PK,49.9927121,22.177107,176
1627,Kielce,PL,KI,50.8716657,20.6314728,176
1628,Warmian-Masurian Voivodeship,PL,WN,53.9311892,21.1260808,176
1629,Lower Silesian Voivodeship,PL,DS,50.9508404,16.36125258,176
1630,Świętokrzyskie Voivodeship,PL,SK,50.7504894,20.7829122,176
1631,Lubusz Voivodeship,PL,LB,52.1001754,15.3605075,176
1632,Podlaskie Voivodeship,PL,PD,53.2668455,22.8525787,176
1633,West Pomeranian Voivodeship,PL,ZP,53.5450793,15.5661586,176
1634,Greater Poland Voivodeship,PL,WP,52.1458506,17.397672,176
1635,Lesser Poland Voivodeship,PL,MA,49.790952,20.3793521,176
1636,Łódź Voivodeship,PL,LD,51.4721678,19.3460637,176
1637,Masovian Voivodeship,PL,MZ,52.5461934,21.2073404,176
1638,Lublin Voivodeship,PL,LU,50.976229,22.7991176,176
1639,Aargau,CH,AG,47.412396,8.1948321,214
1640,Canton of Fribourg,CH,FR,46.8033192,7.161755525,214
1641,Basel-Landschaft,CH,BL,47.5092938,7.6588333,214
1642,Uri,CH,UR,46.7864413,8.6420159,214
1643,Ticino,CH,TI,46.3356506,8.753706,214
1644,Canton of St. Gallen,CH,SG,47.4250593,9.3765878,214
1645,canton of Bern,CH,BE,46.9482713,7.4514512,214
1646,Canton of Zug,CH,ZG,46.896312,9.42814,214
1647,Canton of Geneva,CH,GE,46.2017559,6.1466014,214
1648,Canton of Valais,CH,VS,47.3184127,-1.6816366,214
1649,Appenzell Innerrhoden,CH,AI,47.3007262,9.3991527,214
1650,Obwalden,CH,OW,46.8613857,8.2067825,214
1651,Canton of Vaud,CH,VD,46.4774891,6.2355007,214
1652,Nidwalden,CH,NW,46.942756,8.4119773,214
1653,Schwyz,CH,SZ,47.0211848,8.6535598,214
1654,Canton of Schaffhausen,CH,SH,47.6960491,8.634513,214
1655,Appenzell Ausserrhoden,CH,AR,47.3960076,9.3705839,214
1656,canton of Zürich,CH,ZH,47.3723941,8.5423328,214
1657,Thurgau,CH,TG,47.5859649,9.1428769,214
1658,Canton of Jura,CH,JU,47.41892665,7.079481775,214
1659,Canton of Neuchâtel,CH,NE,46.9895828,6.9292641,214
1660,Graubünden,CH,GR,46.6960615,9.6027351,214
1661,Glarus,CH,GL,47.0422116,9.0674041,214
1662,Canton of Solothurn,CH,SO,47.2081355,7.5384045,214
1663,Canton of Lucerne,CH,LU,47.0505452,8.3054682,214
1664,Tuscany,IT,52,43.4586541,11.1389204,107
1665,Province of Padua,IT,PD,-12.0121828,-77.0591718,107
1666,Province of Parma,IT,PR,52.0545875,19.99592,107
1667,Libero consorzio comunale di Siracusa,IT,SR,37.02983715,15.08678007,107
1668,Metropolitan City of Palermo,IT,PA,-26.0707651,27.96069503,107
1669,Campania,IT,72,40.860672,14.843984,107
1670,Marche,IT,57,43.3458388,13.1415872,107
1671,Metropolitan City of Reggio Calabria,IT,RC,38.1113006,15.6472914,107
1672,Province of Ancona,IT,AN,-12.0096355,-77.0539176,107
1673,Metropolitan City of Venice,IT,VE,45.4414685,12.3152672,107
1674,Province of Latina,IT,LT,-12.08253185,-77.04795673,107
1675,Province of Lecce,IT,LE,40.3570373,18.1718482,107
1676,Province of Pavia,IT,PV,-12.0117027,-77.0592413,107
1677,Province of Lecco,IT,LC,45.8553764,9.389605,107
1678,Lazio,IT,62,41.9808038,12.7662312,107
1679,Abruzzo,IT,65,42.227681,13.854983,107
1680,Metropolitan City of Florence,IT,FI,43.84566315,11.37397484,107
1681,Province of Ascoli Piceno,IT,AP,42.8546185,13.5755038,107
1682,Metropolitan City of Cagliari,IT,CA,47.2548914,-2.1663526,107
1683,Umbria,IT,55,42.965916,12.490236,107
1684,Metropolitan City of Bologna,IT,BO,43.7691171,11.2749589,107
1685,Province of Pisa,IT,PI,53.4355514,21.8386244,107
1686,Province of Barletta-Andria-Trani,IT,BT,41.2004543,16.2051484,107
1687,Province of Pistoia,IT,PT,43.9336213,10.9174238,107
1688,Apulia,IT,75,40.9842539,16.6210027,107
1689,Province of Belluno,IT,BL,46.1397378,12.2192968,107
1690,Province of Pordenone,IT,PN,45.9562503,12.6597197,107
1691,Province of Perugia,IT,PG,43.1119613,12.3890104,107
1692,Province of Avellino,IT,AV,40.9141958,14.7888764,107
1693,Pesaro and Urbino Province,IT,PU,43.7687039,13.1332307,107
1694,Province of Pescara,IT,PE,38.7868878,0.1795898,107
1695,Molise,IT,67,41.684672,14.595614,107
1696,Province of Piacenza,IT,PC,45.0534751,9.6947461,107
1697,Province of Potenza,IT,PZ,40.6384046,15.8022077,107
1698,Metropolitan City of Milan,IT,MI,44.4106385,26.19840949,107
1699,Metropolitan City of Genoa,IT,GE,44.4056493,8.9462564,107
1700,Province of Prato,IT,PO,38.78275975,-0.446540784,107
1701,Benevento Province,IT,BN,41.1295587,14.7824639,107
1702,Piedmont,IT,21,37.8243715,-122.231635,107
1703,Calabria,IT,78,39.0565974,16.5249864,107
1704,Province of Bergamo,IT,BG,45.6944947,9.6698727,107
1705,Lombardy,IT,25,45.6209,9.768893,107
1706,Basilicata,IT,77,40.500571,16.081953,107
1707,Province of Ravenna,IT,RA,-14.88029565,47.9903869,107
1708,Province of Reggio Emilia,IT,RE,44.6978446,10.6304958,107
1709,Sicily,IT,82,37.587794,14.155048,107
1710,Metropolitan City of Turin,IT,TO,45.2234681,6.2164762,107
1711,Metropolitan City of Rome,IT,RM,48.8822428,2.3213306,107
1712,Province of Rieti,IT,RI,42.4016906,12.8629993,107
1713,Province of Rimini,IT,RN,12.8661262,100.8927355,107
1714,Province of Brindisi,IT,BR,40.6395295,17.945526,107
1715,Sardinia,IT,88,40.06160405,9.097753807,107
1716,Aosta Valley,IT,23,45.730099,7.387426,107
1717,Province of Brescia,IT,BS,-12.1075919,-76.992181,107
1718,Libero consorzio comunale di Caltanissetta,IT,CL,37.3737051,13.98056181,107
1719,Province of Rovigo,IT,RO,45.0698166,11.78882,107
1720,Province of Salerno,IT,SA,40.6803601,14.7594542,107
1721,Province of Campobasso,IT,CB,41.5597935,14.6602725,107
1722,Province of Sassari,IT,SS,40.7232643,8.5610074,107
1723,Libero consorzio comunale di Enna,IT,EN,37.585301,14.48841747,107
1724,Metropolitan City of Naples,IT,NA,-26.2089317,28.3309369,107
1725,Trentino-South Tyrol,IT,32,46.65594215,11.22963726,107
1726,Province of Verbano-Cusio-Ossola,IT,VB,45.7930319,8.3609467,107
1727,Libero consorzio comunale di Agrigento,IT,AG,37.41425505,13.55770724,107
1728,Province of Catanzaro,IT,CZ,38.9076353,16.5960465,107
1729,Libero consorzio comunale di Ragusa,IT,RG,36.91561815,14.64508475,107
1730,Province of Carbonia-Iglesias,IT,CI,39.2534659,8.5721016,107
1731,Province of Caserta,IT,CE,41.0820827,14.334708,107
1732,Province of Savona,IT,SV,53.1141628,23.14202992,107
1733,Libero consorzio comunale di Trapani,IT,TP,37.8745486,12.71797919,107
1734,Province of Siena,IT,SI,8.2191736,-12.163497,107
1735,Province of Viterbo,IT,VT,42.4168441,12.1051148,107
1736,Province of Verona,IT,VR,-12.0116992,-77.0579761,107
1737,Province of Vibo Valentia,IT,VV,38.6759329,16.0998186,107
1738,Province of Vicenza,IT,VI,45.5488306,11.5478825,107
1739,Province of Chieti,IT,CH,42.3446529,14.1659738,107
1740,Province of Como,IT,CO,10.3000603,-4.6346842,107
1741,Province of Sondrio,IT,SO,46.1709447,9.8767107,107
1742,Province of Cosenza,IT,CS,39.3099931,16.2501929,107
1743,Province of Taranto,IT,TA,67.167297,22.6270087,107
1744,Province of Fermo,IT,FM,43.1604184,13.7161408,107
1745,Province of Livorno,IT,LI,43.5507411,10.3091456,107
1746,Province of Ferrara,IT,FE,50.08207525,19.94248275,107
1747,Province of Lodi,IT,LO,52.5764563,15.6698414,107
1748,Trentino,IT,TN,46.102817,11.1295431,107
1749,Province of Lucca,IT,LU,43.8428381,10.502876,107
1750,Province of Macerata,IT,MC,43.3007275,13.4535897,107
1751,Province of Cremona,IT,CR,51.5466917,-114.4908728,107
1752,Province of Teramo,IT,TE,42.6612893,13.6983524,107
1753,Veneto,IT,34,45.6476663,11.8665254,107
1754,Province of Crotone,IT,KR,39.0806223,17.127196,107
1755,Province of Terni,IT,TR,42.5641417,12.6405466,107
1756,Friuli–Venezia Giulia,IT,36,46.151042,13.055904,107
1757,Province of Modena,IT,MO,53.9736111,18.0941667,107
1758,Province of Mantua,IT,MN,45.1566683,10.7917191,107
1759,Province of Massa and Carrara,IT,MS,44.2213998,10.0359661,107
1760,Province of Matera,IT,MT,38.1900426,-0.5495521,107
1761,Province of Medio Campidano,IT,VS,39.5317389,8.704075,107
1762,Province of Treviso,IT,TV,45.6658505,12.2455414,107
1763,Province of Trieste,IT,TS,-35.31430405,149.1399554,107
1764,Province of Udine,IT,UD,46.0634632,13.2358377,107
1765,Province of Varese,IT,VA,-12.106111,-76.9908383,107
1766,Metropolitan City of Catania,IT,CT,48.895,2.2916639,107
1767,South Tyrol,IT,BZ,46.65594215,11.22963726,107
1768,Liguria,IT,42,44.4777617,8.7026296,107
1769,Province of Monza and Brianza,IT,MB,45.623599,9.2588015,107
1770,Metropolitan City of Messina,IT,ME,-33.3732562,-70.683392,107
1771,Province of Foggia,IT,FG,41.4623447,15.5430624,107
1772,Metropolitan City of Bari,IT,BA,41.1171231,16.8719764,107
1773,Emilia-Romagna,IT,45,44.525696,11.039437,107
1774,Province of Novara,IT,NO,45.4464036,8.619655,107
1775,Province of Cuneo,IT,CN,44.3895925,7.5478945,107
1776,Province of Frosinone,IT,FR,41.6419807,13.3469287,107
1777,Province of Gorizia,IT,GO,45.9441278,13.6252288,107
1778,Province of Biella,IT,BI,39.8775902,45.42976009,107
1779,Province of Forlì-Cesena,IT,FC,43.9947681,11.9804613,107
1780,Province of Asti,IT,AT,-12.0100265,-77.054944,107
1781,Province of L'Aquila,IT,AQ,42.3489203,13.3979672,107
1782,Province of Ogliastra,IT,OG,41.9127042,12.5188287,107
1783,Province of Alessandria,IT,AL,44.9129225,8.615321,107
1784,Province of Olbia-Tempio,IT,OT,40.8268383,9.2785583,107
1785,Province of Vercelli,IT,VC,45.3251557,8.4227666,107
1786,Province of Oristano,IT,OR,39.9059497,8.5916112,107
1787,Province of Grosseto,IT,GR,42.7597261,11.1137389,107
1788,Province of Imperia,IT,IM,50.08211375,19.94222158,107
1789,Province of Isernia,IT,IS,41.600216,14.238217,107
1790,Province of Nuoro,IT,NU,40.3210601,9.3297339,107
1791,Province of La Spezia,IT,SP,51.7373748,19.4942244,107
1792,North Sumatra,ID,SU,2.1923519,99.3812201,102
1793,Bengkulu,ID,BE,-3.5186763,102.5359834,102
1794,Central Kalimantan,ID,KT,-1.499583,113.2903307,102
1795,South Sulawesi,ID,SN,-3.6446718,119.9471906,102
1796,Southeast Sulawesi,ID,SG,-3.5491199,121.7279646,102
1797,Sumatra,ID,SM,-0.14410775,101.6245609,102
1798,Papua,ID,PA,-5.6816069,144.2489081,102
1799,West Papua,ID,PB,-1.3842356,132.902528,102
1800,Maluku,ID,MA,-3.118837,129.4207759,102
1801,North Maluku,ID,MU,0.6301215,127.9720219,102
1802,Central Java,ID,JT,-7.3032412,110.0044145,102
1803,Sulawesi,ID,SL,-1.9758004,120.2948856,102
1804,East Kalimantan,ID,KI,0.7884397,116.2419977,102
1805,Jakarta,ID,JK,-6.1753942,106.827183,102
1806,Kalimantan,ID,KA,1.42965855,114.7405992,102
1807,Riau Islands,ID,KR,-0.1547846,104.5803745,102
1808,North Sulawesi,ID,SA,0.6555692,124.090151,102
1809,Riau,ID,RI,0.5004112,101.5475811,102
1810,Banten,ID,BT,-6.4453801,106.1375586,102
1811,Lampung,ID,LA,-4.8555039,105.0272986,102
1812,Gorontalo,ID,GO,0.7186174,122.4555927,102
1813,Central Sulawesi,ID,ST,-1.6937786,120.8088555,102
1814,West Nusa Tenggara,ID,NB,-8.7892855,117.146169,102
1815,Jambi,ID,JA,-1.611572,102.779699,102
1816,South Sumatra,ID,SS,-3.1266842,104.0930554,102
1817,West Sulawesi,ID,SR,-2.4974546,119.3918955,102
1818,East Nusa Tenggara,ID,NT,-8.5656787,120.6978581,102
1819,South Kalimantan,ID,KS,-2.9434835,115.3756508,102
1820,Bangka Belitung Islands,ID,BB,-2.532904,107.5757137,102
1821,Lesser Sunda Islands,ID,NU,-9,120,102
1822,Aceh,ID,AC,4.3685491,97.0253024,102
1823,Maluku Islands,ID,ML,-3.4591158,126.6561889,102
1824,North Kalimantan,ID,KU,3.0235817,116.2049306,102
1825,West Java,ID,JB,-6.8891904,107.6404716,102
1826,Bali,ID,BA,48.8566101,2.3514992,102
1827,East Java,ID,JI,-7.6977397,112.4914199,102
1828,West Sumatra,ID,SB,-0.5827529,100.6133379,102
1829,Special Region of Yogyakarta,ID,YO,-7.9778384,110.3672257,102
1830,Phoenix Islands,KI,P,53.89132155,-130.5198789,114
1831,Gilbert Islands,KI,G,-45.60066815,166.6592756,114
1832,Line Islands,KI,L,1.872,-157.3842086,114
1833,Primorsky Krai,RU,PRI,45.0819456,134.726645,182
1834,Novgorod Oblast,RU,NGR,58.2843833,32.5169757,182
1835,Jewish Autonomous Oblast,RU,YEV,48.5601613,132.2775662,182
1836,Nenets Autonomous Okrug,RU,NEN,67.6783253,57.0626853,182
1837,Rostov Oblast,RU,ROS,47.6222451,40.7957942,182
1838,Khanty-Mansi Autonomous Okrug,RU,KHM,61.0259025,69.0982628,182
1839,Magadan Oblast,RU,MAG,63.5515028,154.014726,182
1840,Krasnoyarsk Krai,RU,KYA,63.3233807,97.0979974,182
1841,Republic of Karelia,RU,KR,62.6194031,33.4920267,182
1842,Republic of Buryatia,RU,BU,53.60950465,111.0271009,182
1843,Murmansk Oblast,RU,MUR,68.0000418,33.9999151,182
1844,Kaluga Oblast,RU,KLU,54.4382773,35.5272854,182
1845,Chelyabinsk Oblast,RU,CHE,54.4223954,61.1865846,182
1846,Omsk Oblast,RU,OMS,56.0935263,73.5099936,182
1847,Yamalo-Nenets Autonomous Okrug,RU,YAN,67.1471631,74.3415488,182
1848,Sakha Republic,RU,SA,66.941626,129.642371,182
1849,Arkhangelsk,RU,ARK,64.543022,40.537121,182
1850,Republic of Dagestan,RU,DA,43.0883099,47.14988018,182
1851,Yaroslavl Oblast,RU,YAR,57.7781976,39.0021095,182
1852,Republic of Adygea,RU,AD,44.6939006,40.1520421,182
1853,Republic of North Ossetia-Alania,RU,SE,42.9920711,44.2636348,182
1854,Republic of Bashkortostan,RU,BA,54.4747553,55.9784582,182
1855,Kursk Oblast,RU,KRS,51.6568453,36.4852695,182
1856,Ulyanovsk Oblast,RU,ULY,54.1463177,47.2324921,182
1857,Nizhny Novgorod Oblast,RU,NIZ,55.4718033,44.0911594,182
1858,Amur Oblast,RU,AMU,52.8032368,128.437295,182
1859,Chukotka Autonomous Okrug,RU,CHU,66.0006475,169.4900869,182
1860,Tver Oblast,RU,TVE,57.1134475,35.1744428,182
1861,Republic of Tatarstan,RU,TA,55.448217,50.4763591,182
1862,Samara Oblast,RU,SAM,53.2128813,50.8914633,182
1863,Pskov Oblast,RU,PSK,57.5358729,28.8586826,182
1864,Ivanovo Oblast,RU,IVA,56.9167446,41.4352137,182
1865,Kamchatka Krai,RU,KAM,57.1914882,160.0383819,182
1866,Astrakhan Oblast,RU,AST,47.1878186,47.608851,182
1867,Bryansk Oblast,RU,BRY,52.8873315,33.415853,182
1868,Stavropol Krai,RU,STA,44.8632577,43.4406913,182
1869,Karachay-Cherkess Republic,RU,KC,43.7368326,41.7267991,182
1870,Mari El Republic,RU,ME,56.5767504,47.8817512,182
